[
    {
        "name": "광주광역시 사회재난과 - 서구 상무대로 882",
        "lat": 35.150291,
        "lng": 126.858637
    },
    {
        "name": "광주광역시 사회재난과 - 서구 상무대로 882",
        "lat": 35.150291,
        "lng": 126.858637
    },
    {
        "name": "광주광역시 사회재난과 - 서구 상무대로 882",
        "lat": 35.150291,
        "lng": 126.858637
    },
    {
        "name": "광주광역시 사회재난과 - 서구 경열로113번길 6",
        "lat": 35.153167,
        "lng": 126.897898
    },
    {
        "name": "광주광역시 사회재난과 - 서구 경열로113번길 6",
        "lat": 35.153167,
        "lng": 126.897898
    },
    {
        "name": "광주광역시 사회재난과 - 서구 경열로113번길 6",
        "lat": 35.153167,
        "lng": 126.897898
    },
    {
        "name": "광주광역시 사회재난과 - 서구 쌍촌로47번길 41-2",
        "lat": 35.147595,
        "lng": 126.860896
    },
    {
        "name": "광주광역시 사회재난과 - 서구 쌍촌로47번길 41-2",
        "lat": 35.147595,
        "lng": 126.860896
    },
    {
        "name": "광주광역시 사회재난과 - 서구 벽진길 59-1",
        "lat": 35.133417,
        "lng": 126.837403
    },
    {
        "name": "광주광역시 사회재난과 - 서구 벽진길 59-1",
        "lat": 35.133417,
        "lng": 126.837403
    },
    {
        "name": "광주광역시 사회재난과 - 서구 상무오월로 40",
        "lat": 35.155312,
        "lng": 126.863542
    },
    {
        "name": "광주광역시 사회재난과 - 서구 상무오월로 40",
        "lat": 35.155312,
        "lng": 126.863542
    },
    {
        "name": "광주광역시 사회재난과 - 서구 상무오월로 40",
        "lat": 35.155312,
        "lng": 126.863542
    },
    {
        "name": "광주광역시 사회재난과 - 서구 죽봉대로111번길 11",
        "lat": 35.163411,
        "lng": 126.882263
    },
    {
        "name": "광주광역시 사회재난과 - 서구 죽봉대로111번길 11",
        "lat": 35.163411,
        "lng": 126.882263
    },
    {
        "name": "광주광역시 사회재난과 - 서구 광천시장길 10",
        "lat": 35.1641,
        "lng": 126.881354
    },
    {
        "name": "광주광역시 사회재난과 - 서구 광천시장길 10",
        "lat": 35.1641,
        "lng": 126.881354
    },
    {
        "name": "광주광역시 사회재난과 - 서구 무진대로963번길 8-1",
        "lat": 35.162211,
        "lng": 126.886006
    },
    {
        "name": "광주광역시 사회재난과 - 서구 무진대로963번길 8-1",
        "lat": 35.162211,
        "lng": 126.886006
    },
    {
        "name": "광주광역시 사회재난과 - 서구 무진대로963번길 8-1",
        "lat": 35.162211,
        "lng": 126.886006
    },
    {
        "name": "광주광역시 사회재난과 - 서구 화운로304번길 29",
        "lat": 35.165219,
        "lng": 126.880479
    },
    {
        "name": "광주광역시 사회재난과 - 서구 화운로304번길 29",
        "lat": 35.165219,
        "lng": 126.880479
    },
    {
        "name": "광주광역시 사회재난과 - 서구 화운로304번길 29",
        "lat": 35.165219,
        "lng": 126.880479
    },
    {
        "name": "광주광역시 사회재난과 - 서구 천변좌하로626번길 26",
        "lat": 35.167053,
        "lng": 126.878825
    },
    {
        "name": "광주광역시 사회재난과 - 서구 천변좌하로626번길 26",
        "lat": 35.167053,
        "lng": 126.878825
    },
    {
        "name": "광주광역시 사회재난과 - 서구 화운로333번길 10",
        "lat": 35.168539,
        "lng": 126.876213
    },
    {
        "name": "광주광역시 사회재난과 - 서구 화운로333번길 10",
        "lat": 35.168539,
        "lng": 126.876213
    },
    {
        "name": "광주광역시 사회재난과 - 서구 화운로323번길 12",
        "lat": 35.16769,
        "lng": 126.876117
    },
    {
        "name": "광주광역시 사회재난과 - 서구 화운로323번길 12",
        "lat": 35.16769,
        "lng": 126.876117
    },
    {
        "name": "광주광역시 사회재난과 - 서구 칠성로153번길 11",
        "lat": 35.167219,
        "lng": 126.874547
    },
    {
        "name": "광주광역시 사회재난과 - 서구 칠성로153번길 11",
        "lat": 35.167219,
        "lng": 126.874547
    },
    {
        "name": "광주광역시 사회재난과 - 서구 칠성로153번길 11",
        "lat": 35.167219,
        "lng": 126.874547
    },
    {
        "name": "광주광역시 사회재난과 - 서구 죽봉대로120번길 11",
        "lat": 35.163875,
        "lng": 126.885201
    },
    {
        "name": "광주광역시 사회재난과 - 서구 죽봉대로120번길 11",
        "lat": 35.163875,
        "lng": 126.885201
    },
    {
        "name": "광주광역시 사회재난과 - 서구 광천1길 14",
        "lat": 35.16458,
        "lng": 126.882412
    },
    {
        "name": "광주광역시 사회재난과 - 서구 광천1길 14",
        "lat": 35.16458,
        "lng": 126.882412
    },
    {
        "name": "광주광역시 사회재난과 - 서구 금부로 95",
        "lat": 35.139622,
        "lng": 126.859345
    },
    {
        "name": "광주광역시 사회재난과 - 서구 금부로 95",
        "lat": 35.139622,
        "lng": 126.859345
    },
    {
        "name": "광주광역시 사회재난과 - 서구 운천로 54",
        "lat": 35.13789,
        "lng": 126.860696
    },
    {
        "name": "광주광역시 사회재난과 - 서구 운천로 54",
        "lat": 35.13789,
        "lng": 126.860696
    },
    {
        "name": "광주광역시 사회재난과 - 서구 운천로 54",
        "lat": 35.13789,
        "lng": 126.860696
    },
    {
        "name": "광주광역시 사회재난과 - 서구 운천로16번길 3",
        "lat": 35.134265,
        "lng": 126.859887
    },
    {
        "name": "광주광역시 사회재난과 - 서구 운천로16번길 3",
        "lat": 35.134265,
        "lng": 126.859887
    },
    {
        "name": "광주광역시 사회재난과 - 서구 운천로16번길 3",
        "lat": 35.134265,
        "lng": 126.859887
    },
    {
        "name": "광주광역시 사회재난과 - 서구 화개2로20번길 10-4",
        "lat": 35.124083,
        "lng": 126.859241
    },
    {
        "name": "광주광역시 사회재난과 - 서구 화개2로20번길 32-22",
        "lat": 35.122589,
        "lng": 126.860676
    },
    {
        "name": "광주광역시 사회재난과 - 서구 화개2로20번길 32-22",
        "lat": 35.122589,
        "lng": 126.860676
    },
    {
        "name": "광주광역시 사회재난과 - 서구 화개2로20번길 32-22",
        "lat": 35.122589,
        "lng": 126.860676
    },
    {
        "name": "광주광역시 사회재난과 - 서구 화개2로10번길 2",
        "lat": 35.123386,
        "lng": 126.857891
    },
    {
        "name": "광주광역시 사회재난과 - 서구 화개2로10번길 2",
        "lat": 35.123386,
        "lng": 126.857891
    },
    {
        "name": "광주광역시 사회재난과 - 서구 금호운천길 67",
        "lat": 35.12504,
        "lng": 126.855014
    },
    {
        "name": "광주광역시 사회재난과 - 서구 금호운천길 67",
        "lat": 35.12504,
        "lng": 126.855014
    },
    {
        "name": "광주광역시 사회재난과 - 서구 화개1로5번길 6",
        "lat": 35.124817,
        "lng": 126.854358
    },
    {
        "name": "광주광역시 사회재난과 - 서구 화개1로5번길 6",
        "lat": 35.124817,
        "lng": 126.854358
    },
    {
        "name": "광주광역시 사회재난과 - 서구 월드컵4강로210번길 11",
        "lat": 35.154818,
        "lng": 126.87087
    },
    {
        "name": "광주광역시 사회재난과 - 서구 월드컵4강로210번길 11",
        "lat": 35.154818,
        "lng": 126.87087
    },
    {
        "name": "광주광역시 사회재난과 - 서구 월드컵4강로210번길 11",
        "lat": 35.154818,
        "lng": 126.87087
    },
    {
        "name": "광주광역시 사회재난과 - 서구 월드컵4강로226번길 20-1",
        "lat": 35.156245,
        "lng": 126.871612
    },
    {
        "name": "광주광역시 사회재난과 - 서구 월드컵4강로226번길 20-1",
        "lat": 35.156245,
        "lng": 126.871612
    },
    {
        "name": "광주광역시 사회재난과 - 서구 상무대로1005번길 12-5",
        "lat": 35.153133,
        "lng": 126.872262
    },
    {
        "name": "광주광역시 사회재난과 - 서구 상무대로1005번길 12-5",
        "lat": 35.153133,
        "lng": 126.872262
    },
    {
        "name": "광주광역시 사회재난과 - 서구 상무대로1019번길 15-1",
        "lat": 35.153341,
        "lng": 126.873375
    },
    {
        "name": "광주광역시 사회재난과 - 서구 상무대로1019번길 15-1",
        "lat": 35.153341,
        "lng": 126.873375
    },
    {
        "name": "광주광역시 사회재난과 - 서구 상무대로1019번길 15-1",
        "lat": 35.153341,
        "lng": 126.873375
    },
    {
        "name": "광주광역시 사회재난과 - 서구 상무대로1005번길 12-26",
        "lat": 35.152882,
        "lng": 126.87276
    },
    {
        "name": "광주광역시 사회재난과 - 서구 상무대로1005번길 12-26",
        "lat": 35.152882,
        "lng": 126.87276
    },
    {
        "name": "광주광역시 사회재난과 - 서구 월산로235번길 14",
        "lat": 35.156525,
        "lng": 126.888713
    },
    {
        "name": "광주광역시 사회재난과 - 서구 월산로235번길 14",
        "lat": 35.156525,
        "lng": 126.888713
    },
    {
        "name": "광주광역시 사회재난과 - 서구 경열로 129-22",
        "lat": 35.15426,
        "lng": 126.899615
    },
    {
        "name": "광주광역시 사회재난과 - 서구 경열로 129-22",
        "lat": 35.15426,
        "lng": 126.899615
    },
    {
        "name": "광주광역시 사회재난과 - 서구 죽봉대로38번길 21",
        "lat": 35.15706,
        "lng": 126.885227
    },
    {
        "name": "광주광역시 사회재난과 - 서구 죽봉대로38번길 21",
        "lat": 35.15706,
        "lng": 126.885227
    },
    {
        "name": "광주광역시 사회재난과 - 서구 죽봉대로22번길 7",
        "lat": 35.155472,
        "lng": 126.884333
    },
    {
        "name": "광주광역시 사회재난과 - 서구 월산로255번길 24",
        "lat": 35.156935,
        "lng": 126.886723
    },
    {
        "name": "광주광역시 사회재난과 - 서구 월산로255번길 24",
        "lat": 35.156935,
        "lng": 126.886723
    },
    {
        "name": "광주광역시 사회재난과 - 서구 내방로440번길 16",
        "lat": 35.15943,
        "lng": 126.888061
    },
    {
        "name": "광주광역시 사회재난과 - 서구 내방로440번길 16",
        "lat": 35.15943,
        "lng": 126.888061
    },
    {
        "name": "광주광역시 사회재난과 - 서구 월산로194번길 5",
        "lat": 35.154809,
        "lng": 126.893966
    },
    {
        "name": "광주광역시 사회재난과 - 서구 월산로194번길 5",
        "lat": 35.154809,
        "lng": 126.893966
    },
    {
        "name": "광주광역시 사회재난과 - 서구 월산로194번길 5",
        "lat": 35.154809,
        "lng": 126.893966
    },
    {
        "name": "광주광역시 사회재난과 - 서구 상무대로 1142",
        "lat": 35.153056,
        "lng": 126.886017
    },
    {
        "name": "광주광역시 사회재난과 - 서구 상무대로 1142",
        "lat": 35.153056,
        "lng": 126.886017
    },
    {
        "name": "광주광역시 사회재난과 - 서구 군분로 238",
        "lat": 35.151777,
        "lng": 126.881831
    },
    {
        "name": "광주광역시 사회재난과 - 서구 군분로 238",
        "lat": 35.151777,
        "lng": 126.881831
    },
    {
        "name": "광주광역시 사회재난과 - 서구 군분로 238",
        "lat": 35.151777,
        "lng": 126.881831
    },
    {
        "name": "광주광역시 사회재난과 - 서구 대남대로449번길 5",
        "lat": 35.149963,
        "lng": 126.886241
    },
    {
        "name": "광주광역시 사회재난과 - 서구 대남대로449번길 5",
        "lat": 35.149963,
        "lng": 126.886241
    },
    {
        "name": "광주광역시 사회재난과 - 서구 상무대로1194번길 11-1",
        "lat": 35.154016,
        "lng": 126.892955
    },
    {
        "name": "광주광역시 사회재난과 - 서구 상무대로1194번길 11-1",
        "lat": 35.154016,
        "lng": 126.892955
    },
    {
        "name": "광주광역시 사회재난과 - 서구 하남대로550번길 20",
        "lat": 35.172147,
        "lng": 126.852343
    },
    {
        "name": "광주광역시 사회재난과 - 서구 하남대로550번길 20",
        "lat": 35.172147,
        "lng": 126.852343
    },
    {
        "name": "광주광역시 사회재난과 - 서구 하남대로550번길 20",
        "lat": 35.172147,
        "lng": 126.852343
    },
    {
        "name": "광주광역시 사회재난과 - 서구 유림로98번길 43",
        "lat": 35.171177,
        "lng": 126.868619
    },
    {
        "name": "광주광역시 사회재난과 - 서구 유림로98번길 43",
        "lat": 35.171177,
        "lng": 126.868619
    },
    {
        "name": "광주광역시 사회재난과 - 서구 동천로 13",
        "lat": 35.170391,
        "lng": 126.860162
    },
    {
        "name": "광주광역시 사회재난과 - 서구 동천로 13",
        "lat": 35.170391,
        "lng": 126.860162
    },
    {
        "name": "광주광역시 사회재난과 - 서구 동천로 13",
        "lat": 35.170391,
        "lng": 126.860162
    },
    {
        "name": "광주광역시 사회재난과 - 서구 동천로10번길 22",
        "lat": 35.169553,
        "lng": 126.861353
    },
    {
        "name": "광주광역시 사회재난과 - 서구 동천로10번길 22",
        "lat": 35.169553,
        "lng": 126.861353
    },
    {
        "name": "광주광역시 사회재난과 - 서구 동천로10번길 22",
        "lat": 35.169553,
        "lng": 126.861353
    },
    {
        "name": "광주광역시 사회재난과 - 서구 유림로98번길 11",
        "lat": 35.171499,
        "lng": 126.865424
    },
    {
        "name": "광주광역시 사회재난과 - 서구 유림로98번길 11",
        "lat": 35.171499,
        "lng": 126.865424
    },
    {
        "name": "광주광역시 사회재난과 - 서구 동림2지구길 55",
        "lat": 35.170556,
        "lng": 126.873408
    },
    {
        "name": "광주광역시 사회재난과 - 서구 동림2지구길 55",
        "lat": 35.170556,
        "lng": 126.873408
    },
    {
        "name": "광주광역시 사회재난과 - 서구 개산길 19",
        "lat": 35.113766,
        "lng": 126.846007
    },
    {
        "name": "광주광역시 사회재난과 - 서구 개산길 19",
        "lat": 35.113766,
        "lng": 126.846007
    },
    {
        "name": "광주광역시 사회재난과 - 서구 개산길 19",
        "lat": 35.113766,
        "lng": 126.846007
    },
    {
        "name": "광주광역시 사회재난과 - 서구 마륵벽진길 9-1",
        "lat": 35.143859,
        "lng": 126.844825
    },
    {
        "name": "광주광역시 사회재난과 - 서구 마륵벽진길 9-1",
        "lat": 35.143859,
        "lng": 126.844825
    },
    {
        "name": "광주광역시 사회재난과 - 서구 마륵벽진길 9-1",
        "lat": 35.143859,
        "lng": 126.844825
    },
    {
        "name": "광주광역시 사회재난과 - 서구 상일로64번길 20",
        "lat": 35.160312,
        "lng": 126.864706
    },
    {
        "name": "광주광역시 사회재난과 - 서구 상일로14번길 1",
        "lat": 35.156774,
        "lng": 126.863171
    },
    {
        "name": "광주광역시 사회재난과 - 서구 상일로14번길 1",
        "lat": 35.156774,
        "lng": 126.863171
    },
    {
        "name": "광주광역시 사회재난과 - 서구 상일로14번길 1",
        "lat": 35.156774,
        "lng": 126.863171
    },
    {
        "name": "광주광역시 사회재난과 - 서구 사동길 79-1",
        "lat": 35.105335,
        "lng": 126.833975
    },
    {
        "name": "광주광역시 사회재난과 - 서구 사동길 79-1",
        "lat": 35.105335,
        "lng": 126.833975
    },
    {
        "name": "광주광역시 사회재난과 - 서구 상무대로884번길 17-47",
        "lat": 35.149086,
        "lng": 126.860953
    },
    {
        "name": "광주광역시 사회재난과 - 서구 상무대로884번길 17-47",
        "lat": 35.149086,
        "lng": 126.860953
    },
    {
        "name": "광주광역시 사회재난과 - 서구 쌍촌로27번길 24-1",
        "lat": 35.147017,
        "lng": 126.862412
    },
    {
        "name": "광주광역시 사회재난과 - 서구 쌍촌로27번길 24-1",
        "lat": 35.147017,
        "lng": 126.862412
    },
    {
        "name": "광주광역시 사회재난과 - 서구 쌍촌로27번길 24-1",
        "lat": 35.147017,
        "lng": 126.862412
    },
    {
        "name": "광주광역시 사회재난과 - 서구 쌍촌로43번길 16-1",
        "lat": 35.148454,
        "lng": 126.863234
    },
    {
        "name": "광주광역시 사회재난과 - 서구 쌍촌로43번길 16-1",
        "lat": 35.148454,
        "lng": 126.863234
    },
    {
        "name": "광주광역시 사회재난과 - 서구 쌍촌로15번길 8-24",
        "lat": 35.147328,
        "lng": 126.864132
    },
    {
        "name": "광주광역시 사회재난과 - 서구 쌍촌로15번길 8-24",
        "lat": 35.147328,
        "lng": 126.864132
    },
    {
        "name": "광주광역시 사회재난과 - 서구 상무민주로76번길 17",
        "lat": 35.157276,
        "lng": 126.861173
    },
    {
        "name": "광주광역시 사회재난과 - 서구 상무민주로76번길 17",
        "lat": 35.157276,
        "lng": 126.861173
    },
    {
        "name": "광주광역시 사회재난과 - 서구 상무민주로32번길 19",
        "lat": 35.154236,
        "lng": 126.859585
    },
    {
        "name": "광주광역시 사회재난과 - 서구 상무민주로32번길 19",
        "lat": 35.154236,
        "lng": 126.859585
    },
    {
        "name": "광주광역시 사회재난과 - 서구 상무민주로32번길 19",
        "lat": 35.154236,
        "lng": 126.859585
    },
    {
        "name": "광주광역시 사회재난과 - 서구 상무민주로32번길 4",
        "lat": 35.153283,
        "lng": 126.859029
    },
    {
        "name": "광주광역시 사회재난과 - 서구 상무민주로32번길 4",
        "lat": 35.153283,
        "lng": 126.859029
    },
    {
        "name": "광주광역시 사회재난과 - 서구 상무민주로32번길 4",
        "lat": 35.153283,
        "lng": 126.859029
    },
    {
        "name": "광주광역시 사회재난과 - 서구 계수로52번길 1",
        "lat": 35.160132,
        "lng": 126.856088
    },
    {
        "name": "광주광역시 사회재난과 - 서구 계수로52번길 1",
        "lat": 35.160132,
        "lng": 126.856088
    },
    {
        "name": "광주광역시 사회재난과 - 서구 계수로 61",
        "lat": 35.160426,
        "lng": 126.857303
    },
    {
        "name": "광주광역시 사회재난과 - 서구 계수로 61",
        "lat": 35.160426,
        "lng": 126.857303
    },
    {
        "name": "광주광역시 사회재난과 - 서구 계수로 61",
        "lat": 35.160426,
        "lng": 126.857303
    },
    {
        "name": "광주광역시 사회재난과 - 서구 상무민주로 123",
        "lat": 35.161552,
        "lng": 126.8592
    },
    {
        "name": "광주광역시 사회재난과 - 서구 상무민주로 123",
        "lat": 35.161552,
        "lng": 126.8592
    },
    {
        "name": "광주광역시 사회재난과 - 서구 내방로211번길 13",
        "lat": 35.159212,
        "lng": 126.863974
    },
    {
        "name": "광주광역시 사회재난과 - 서구 내방로211번길 13",
        "lat": 35.159212,
        "lng": 126.863974
    },
    {
        "name": "광주광역시 사회재난과 - 서구 내방로211번길 13",
        "lat": 35.159212,
        "lng": 126.863974
    },
    {
        "name": "광주광역시 사회재난과 - 서구 상일로14번길 11",
        "lat": 35.156782,
        "lng": 126.864268
    },
    {
        "name": "광주광역시 사회재난과 - 서구 상일로14번길 11",
        "lat": 35.156782,
        "lng": 126.864268
    },
    {
        "name": "광주광역시 사회재난과 - 서구 상일로14번길 11",
        "lat": 35.156782,
        "lng": 126.864268
    },
    {
        "name": "광주광역시 사회재난과 - 서구 상무오월로 49",
        "lat": 35.155645,
        "lng": 126.865
    },
    {
        "name": "광주광역시 사회재난과 - 서구 상무오월로 49",
        "lat": 35.155645,
        "lng": 126.865
    },
    {
        "name": "광주광역시 사회재난과 - 서구 내방로246번길 9",
        "lat": 35.157223,
        "lng": 126.868097
    },
    {
        "name": "광주광역시 사회재난과 - 서구 내방로246번길 9",
        "lat": 35.157223,
        "lng": 126.868097
    },
    {
        "name": "광주광역시 사회재난과 - 서구 월드컵4강로229번길 47",
        "lat": 35.155023,
        "lng": 126.865553
    },
    {
        "name": "광주광역시 사회재난과 - 서구 월드컵4강로229번길 47",
        "lat": 35.155023,
        "lng": 126.865553
    },
    {
        "name": "광주광역시 사회재난과 - 서구 월드컵4강로229번길 47",
        "lat": 35.155023,
        "lng": 126.865553
    },
    {
        "name": "광주광역시 사회재난과 - 서구 화정로21번길 5",
        "lat": 35.145158,
        "lng": 126.859598
    },
    {
        "name": "광주광역시 사회재난과 - 서구 화정로21번길 5",
        "lat": 35.145158,
        "lng": 126.859598
    },
    {
        "name": "광주광역시 사회재난과 - 서구 쌍촌로47번길 28-6",
        "lat": 35.148953,
        "lng": 126.861774
    },
    {
        "name": "광주광역시 사회재난과 - 서구 마륵복개로 164",
        "lat": 35.14629,
        "lng": 126.855071
    },
    {
        "name": "광주광역시 사회재난과 - 서구 마륵복개로 164",
        "lat": 35.14629,
        "lng": 126.855071
    },
    {
        "name": "광주광역시 사회재난과 - 서구 상무대로955번길 6",
        "lat": 35.152168,
        "lng": 126.866554
    },
    {
        "name": "광주광역시 사회재난과 - 서구 상무대로955번길 6",
        "lat": 35.152168,
        "lng": 126.866554
    },
    {
        "name": "광주광역시 사회재난과 - 서구 상무대로955번길 6",
        "lat": 35.152168,
        "lng": 126.866554
    },
    {
        "name": "광주광역시 사회재난과 - 서구 상무대로935번길 11-1",
        "lat": 35.152594,
        "lng": 126.864176
    },
    {
        "name": "광주광역시 사회재난과 - 서구 상무대로935번길 11-1",
        "lat": 35.152594,
        "lng": 126.864176
    },
    {
        "name": "광주광역시 사회재난과 - 서구 상무민주로6번길 17",
        "lat": 35.151603,
        "lng": 126.860493
    },
    {
        "name": "광주광역시 사회재난과 - 서구 상무민주로6번길 17",
        "lat": 35.151603,
        "lng": 126.860493
    },
    {
        "name": "광주광역시 사회재난과 - 서구 상무민주로6번길 17",
        "lat": 35.151603,
        "lng": 126.860493
    },
    {
        "name": "광주광역시 사회재난과 - 서구 상무민주로 10",
        "lat": 35.151278,
        "lng": 126.858633
    },
    {
        "name": "광주광역시 사회재난과 - 서구 상무민주로 10",
        "lat": 35.151278,
        "lng": 126.858633
    },
    {
        "name": "광주광역시 사회재난과 - 서구 운천로184번길 8",
        "lat": 35.148966,
        "lng": 126.857294
    },
    {
        "name": "광주광역시 사회재난과 - 서구 운천로184번길 8",
        "lat": 35.148966,
        "lng": 126.857294
    },
    {
        "name": "광주광역시 사회재난과 - 서구 상무대로884번길 20",
        "lat": 35.14872,
        "lng": 126.859024
    },
    {
        "name": "광주광역시 사회재난과 - 서구 상무대로884번길 20",
        "lat": 35.14872,
        "lng": 126.859024
    },
    {
        "name": "광주광역시 사회재난과 - 서구 상무대로884번길 20",
        "lat": 35.14872,
        "lng": 126.859024
    },
    {
        "name": "광주광역시 사회재난과 - 서구 쌍촌로65번길 34",
        "lat": 35.150168,
        "lng": 126.860711
    },
    {
        "name": "광주광역시 사회재난과 - 서구 쌍촌로65번길 34",
        "lat": 35.150168,
        "lng": 126.860711
    },
    {
        "name": "광주광역시 사회재난과 - 서구 쌍촌로 61",
        "lat": 35.150085,
        "lng": 126.864108
    },
    {
        "name": "광주광역시 사회재난과 - 서구 쌍촌로 61",
        "lat": 35.150085,
        "lng": 126.864108
    },
    {
        "name": "광주광역시 사회재난과 - 서구 쌍촌로 61",
        "lat": 35.150085,
        "lng": 126.864108
    },
    {
        "name": "광주광역시 사회재난과 - 서구 쌍촌로51번길 2",
        "lat": 35.149608,
        "lng": 126.864778
    },
    {
        "name": "광주광역시 사회재난과 - 서구 쌍촌로51번길 2",
        "lat": 35.149608,
        "lng": 126.864778
    },
    {
        "name": "광주광역시 사회재난과 - 서구 쌍촌로51번길 2",
        "lat": 35.149608,
        "lng": 126.864778
    },
    {
        "name": "광주광역시 사회재난과 - 서구 쌍촌로47번길 17",
        "lat": 35.14875,
        "lng": 126.862804
    },
    {
        "name": "광주광역시 사회재난과 - 서구 쌍촌로47번길 17",
        "lat": 35.14875,
        "lng": 126.862804
    },
    {
        "name": "광주광역시 사회재난과 - 서구 쌍촌로47번길 17",
        "lat": 35.14875,
        "lng": 126.862804
    },
    {
        "name": "광주광역시 사회재난과 - 서구 쌍촌로 56",
        "lat": 35.149959,
        "lng": 126.86655
    },
    {
        "name": "광주광역시 사회재난과 - 서구 쌍촌로 56",
        "lat": 35.149959,
        "lng": 126.86655
    },
    {
        "name": "광주광역시 사회재난과 - 서구 구성로 47-1",
        "lat": 35.151214,
        "lng": 126.902138
    },
    {
        "name": "광주광역시 사회재난과 - 서구 구성로 47-1",
        "lat": 35.151214,
        "lng": 126.902138
    },
    {
        "name": "광주광역시 사회재난과 - 서구 천변좌로208번길 14-1",
        "lat": 35.155508,
        "lng": 126.898981
    },
    {
        "name": "광주광역시 사회재난과 - 서구 천변좌로208번길 14-1",
        "lat": 35.155508,
        "lng": 126.898981
    },
    {
        "name": "광주광역시 사회재난과 - 서구 천변좌로208번길 14-1",
        "lat": 35.155508,
        "lng": 126.898981
    },
    {
        "name": "광주광역시 사회재난과 - 서구 양동로17번길 4-1",
        "lat": 35.154766,
        "lng": 126.898642
    },
    {
        "name": "광주광역시 사회재난과 - 서구 독립로185번길 25",
        "lat": 35.150765,
        "lng": 126.90325
    },
    {
        "name": "광주광역시 사회재난과 - 서구 독립로185번길 25",
        "lat": 35.150765,
        "lng": 126.90325
    },
    {
        "name": "광주광역시 사회재난과 - 서구 발산로45번길 22-1",
        "lat": 35.159277,
        "lng": 126.892788
    },
    {
        "name": "광주광역시 사회재난과 - 서구 발산로45번길 22-1",
        "lat": 35.159277,
        "lng": 126.892788
    },
    {
        "name": "광주광역시 사회재난과 - 서구 발산로45번길 22-1",
        "lat": 35.159277,
        "lng": 126.892788
    },
    {
        "name": "광주광역시 사회재난과 - 서구 천변좌로262번길 11",
        "lat": 35.15223,
        "lng": 126.903599
    },
    {
        "name": "광주광역시 사회재난과 - 서구 천변우하로 293",
        "lat": 35.164874,
        "lng": 126.854049
    },
    {
        "name": "광주광역시 사회재난과 - 서구 유덕로 11",
        "lat": 35.164526,
        "lng": 126.852783
    },
    {
        "name": "광주광역시 사회재난과 - 서구 유덕로 11",
        "lat": 35.164526,
        "lng": 126.852783
    },
    {
        "name": "광주광역시 사회재난과 - 서구 유덕로 11",
        "lat": 35.164526,
        "lng": 126.852783
    },
    {
        "name": "광주광역시 사회재난과 - 서구 유덕로 11",
        "lat": 35.164526,
        "lng": 126.852783
    },
    {
        "name": "광주광역시 사회재난과 - 서구 상무버들로53번길 22-21",
        "lat": 35.164079,
        "lng": 126.856635
    },
    {
        "name": "광주광역시 사회재난과 - 서구 상무버들로53번길 22-21",
        "lat": 35.164079,
        "lng": 126.856635
    },
    {
        "name": "광주광역시 사회재난과 - 서구 상무버들로53번길 22-21",
        "lat": 35.164079,
        "lng": 126.856635
    },
    {
        "name": "광주광역시 사회재난과 - 서구 상무버들로53번길 22-21",
        "lat": 35.164079,
        "lng": 126.856635
    },
    {
        "name": "광주광역시 사회재난과 - 서구 상무버들로53번길 16",
        "lat": 35.163096,
        "lng": 126.85735
    },
    {
        "name": "광주광역시 사회재난과 - 서구 상무버들로53번길 16",
        "lat": 35.163096,
        "lng": 126.85735
    },
    {
        "name": "광주광역시 사회재난과 - 서구 상무버들로53번길 16",
        "lat": 35.163096,
        "lng": 126.85735
    },
    {
        "name": "광주광역시 사회재난과 - 서구 상무버들로54번길 40",
        "lat": 35.166159,
        "lng": 126.858202
    },
    {
        "name": "광주광역시 사회재난과 - 서구 상무버들로54번길 40",
        "lat": 35.166159,
        "lng": 126.858202
    },
    {
        "name": "광주광역시 사회재난과 - 서구 유림로33번길 10-1",
        "lat": 35.165434,
        "lng": 126.862238
    },
    {
        "name": "광주광역시 사회재난과 - 서구 유림로33번길 10-1",
        "lat": 35.165434,
        "lng": 126.862238
    },
    {
        "name": "광주광역시 사회재난과 - 서구 유림로33번길 10-1",
        "lat": 35.165434,
        "lng": 126.862238
    },
    {
        "name": "광주광역시 사회재난과 - 서구 시청서편로 9",
        "lat": 35.159572,
        "lng": 126.845561
    },
    {
        "name": "광주광역시 사회재난과 - 서구 시청서편로 9",
        "lat": 35.159572,
        "lng": 126.845561
    },
    {
        "name": "광주광역시 사회재난과 - 서구 상무공원로 112",
        "lat": 35.15334,
        "lng": 126.843178
    },
    {
        "name": "광주광역시 사회재난과 - 서구 상무공원로 112",
        "lat": 35.150466,
        "lng": 126.847536
    },
    {
        "name": "광주광역시 사회재난과 - 서구 천변좌하로 292",
        "lat": 35.160027,
        "lng": 126.846518
    },
    {
        "name": "광주광역시 사회재난과 - 서구 상무오월로 1",
        "lat": 35.155484,
        "lng": 126.859776
    },
    {
        "name": "광주광역시 사회재난과 - 서구 상무오월로 1",
        "lat": 35.155484,
        "lng": 126.859776
    },
    {
        "name": "광주광역시 사회재난과 - 서구 상무오월로 1",
        "lat": 35.155484,
        "lng": 126.859776
    },
    {
        "name": "광주광역시 사회재난과 - 서구 상무화원로 2",
        "lat": 35.144229,
        "lng": 126.841221
    },
    {
        "name": "광주광역시 사회재난과 - 서구 상무화원로 2",
        "lat": 35.144229,
        "lng": 126.841221
    },
    {
        "name": "광주광역시 사회재난과 - 서구 마륵로 130",
        "lat": 35.14647,
        "lng": 126.845531
    },
    {
        "name": "광주광역시 사회재난과 - 서구 마륵로 130",
        "lat": 35.14647,
        "lng": 126.845531
    },
    {
        "name": "광주광역시 사회재난과 - 서구 풍암신흥로61번길 5",
        "lat": 35.121926,
        "lng": 126.867901
    },
    {
        "name": "광주광역시 사회재난과 - 서구 풍암신흥로80번길 11-4",
        "lat": 35.124111,
        "lng": 126.870296
    },
    {
        "name": "광주광역시 사회재난과 - 서구 풍암신흥로80번길 11-4",
        "lat": 35.124111,
        "lng": 126.870296
    },
    {
        "name": "광주광역시 사회재난과 - 서구 풍암순환로 68",
        "lat": 35.121695,
        "lng": 126.878424
    },
    {
        "name": "광주광역시 사회재난과 - 서구 풍암순환로 68",
        "lat": 35.121695,
        "lng": 126.878424
    },
    {
        "name": "광주광역시 사회재난과 - 서구 풍암금당길 158",
        "lat": 35.12119,
        "lng": 126.884301
    },
    {
        "name": "광주광역시 사회재난과 - 서구 풍암금당길 158",
        "lat": 35.12119,
        "lng": 126.884301
    },
    {
        "name": "광주광역시 사회재난과 - 서구 풍암금당길 158",
        "lat": 35.12119,
        "lng": 126.884301
    },
    {
        "name": "광주광역시 사회재난과 - 서구 풍암순환로 162",
        "lat": 35.124951,
        "lng": 126.883495
    },
    {
        "name": "광주광역시 사회재난과 - 서구 풍암순환로 162",
        "lat": 35.124951,
        "lng": 126.883495
    },
    {
        "name": "광주광역시 사회재난과 - 서구 풍암신흥로11번길 19",
        "lat": 35.121019,
        "lng": 126.863291
    },
    {
        "name": "광주광역시 사회재난과 - 서구 풍암신흥로11번길 19",
        "lat": 35.121019,
        "lng": 126.863291
    },
    {
        "name": "광주광역시 사회재난과 - 서구 풍금로37번길 1",
        "lat": 35.122521,
        "lng": 126.863271
    },
    {
        "name": "광주광역시 사회재난과 - 서구 풍금로23번길 9",
        "lat": 35.121258,
        "lng": 126.863886
    },
    {
        "name": "광주광역시 사회재난과 - 서구 풍금로23번길 9",
        "lat": 35.121258,
        "lng": 126.863886
    },
    {
        "name": "광주광역시 사회재난과 - 서구 풍금로23번길 9",
        "lat": 35.121258,
        "lng": 126.863886
    },
    {
        "name": "광주광역시 사회재난과 - 서구 풍암신흥로 37-1",
        "lat": 35.120869,
        "lng": 126.867481
    },
    {
        "name": "광주광역시 사회재난과 - 서구 풍암신흥로 37-1",
        "lat": 35.120869,
        "lng": 126.867481
    },
    {
        "name": "광주광역시 사회재난과 - 서구 풍암신흥로 37-1",
        "lat": 35.120869,
        "lng": 126.867481
    },
    {
        "name": "광주광역시 사회재난과 - 서구 풍금로38번길 45",
        "lat": 35.124631,
        "lng": 126.867131
    },
    {
        "name": "광주광역시 사회재난과 - 서구 풍금로38번길 45",
        "lat": 35.124631,
        "lng": 126.867131
    },
    {
        "name": "광주광역시 사회재난과 - 서구 풍금로38번길 45",
        "lat": 35.124631,
        "lng": 126.867131
    },
    {
        "name": "광주광역시 사회재난과 - 서구 풍암운리로 39",
        "lat": 35.123632,
        "lng": 126.868318
    },
    {
        "name": "광주광역시 사회재난과 - 서구 풍암운리로 39",
        "lat": 35.123632,
        "lng": 126.868318
    },
    {
        "name": "광주광역시 사회재난과 - 서구 월드컵4강로68번길 15-23",
        "lat": 35.144347,
        "lng": 126.876037
    },
    {
        "name": "광주광역시 사회재난과 - 서구 월드컵4강로68번길 15-23",
        "lat": 35.144347,
        "lng": 126.876037
    },
    {
        "name": "광주광역시 사회재난과 - 서구 월드컵4강로68번길 15-23",
        "lat": 35.144347,
        "lng": 126.876037
    },
    {
        "name": "광주광역시 사회재난과 - 서구 염화로116번길 18",
        "lat": 35.141344,
        "lng": 126.877358
    },
    {
        "name": "광주광역시 사회재난과 - 서구 염화로116번길 18",
        "lat": 35.141344,
        "lng": 126.877358
    },
    {
        "name": "광주광역시 사회재난과 - 서구 염화로116번길 18",
        "lat": 35.141344,
        "lng": 126.877358
    },
    {
        "name": "광주광역시 사회재난과 - 서구 내방마을2길 6-13",
        "lat": 35.156095,
        "lng": 126.878757
    },
    {
        "name": "광주광역시 사회재난과 - 서구 내방마을2길 6-13",
        "lat": 35.156095,
        "lng": 126.878757
    },
    {
        "name": "광주광역시 사회재난과 - 서구 내방마을2길 6-13",
        "lat": 35.156095,
        "lng": 126.878757
    },
    {
        "name": "광주광역시 사회재난과 - 서구 염화로160번길 18",
        "lat": 35.142013,
        "lng": 126.882887
    },
    {
        "name": "광주광역시 사회재난과 - 서구 염화로160번길 18",
        "lat": 35.142013,
        "lng": 126.882887
    },
    {
        "name": "광주광역시 사회재난과 - 서구 군분로159번길 15-2",
        "lat": 35.145428,
        "lng": 126.885593
    },
    {
        "name": "광주광역시 사회재난과 - 서구 군분로159번길 15-2",
        "lat": 35.145428,
        "lng": 126.885593
    },
    {
        "name": "광주광역시 사회재난과 - 서구 화정로179번길 29-3",
        "lat": 35.147657,
        "lng": 126.876312
    },
    {
        "name": "광주광역시 사회재난과 - 서구 화정로179번길 29-3",
        "lat": 35.147657,
        "lng": 126.876312
    },
    {
        "name": "광주광역시 사회재난과 - 서구 화정로179번길 29-3",
        "lat": 35.147657,
        "lng": 126.876312
    },
    {
        "name": "광주광역시 사회재난과 - 서구 월드컵4강로116번길 5",
        "lat": 35.147221,
        "lng": 126.87271
    },
    {
        "name": "광주광역시 사회재난과 - 서구 월드컵4강로116번길 5",
        "lat": 35.147221,
        "lng": 126.87271
    },
    {
        "name": "광주광역시 사회재난과 - 서구 화정로 181",
        "lat": 35.145454,
        "lng": 126.87694
    },
    {
        "name": "광주광역시 사회재난과 - 서구 화정로 181",
        "lat": 35.145454,
        "lng": 126.87694
    },
    {
        "name": "광주광역시 사회재난과 - 서구 금화로 278",
        "lat": 35.136263,
        "lng": 126.877794
    },
    {
        "name": "광주광역시 사회재난과 - 서구 금화로 278",
        "lat": 35.136263,
        "lng": 126.877794
    },
    {
        "name": "광주광역시 사회재난과 - 서구 염화로31번길 7",
        "lat": 35.13707,
        "lng": 126.871235
    },
    {
        "name": "광주광역시 사회재난과 - 서구 염화로31번길 7",
        "lat": 35.13707,
        "lng": 126.871235
    },
    {
        "name": "광주광역시 사회재난과 - 서구 염화로31번길 7",
        "lat": 35.13707,
        "lng": 126.871235
    },
    {
        "name": "광주광역시 사회재난과 - 서구 화정로253번길 27",
        "lat": 35.150081,
        "lng": 126.882045
    },
    {
        "name": "광주광역시 사회재난과 - 서구 화정로253번길 27",
        "lat": 35.150081,
        "lng": 126.882045
    },
    {
        "name": "광주광역시 사회재난과 - 서구 화정로253번길 27",
        "lat": 35.150081,
        "lng": 126.882045
    },
    {
        "name": "광주광역시 사회재난과 - 서구 화운로155번길 24",
        "lat": 35.152591,
        "lng": 126.874055
    },
    {
        "name": "광주광역시 사회재난과 - 서구 화운로155번길 24",
        "lat": 35.152591,
        "lng": 126.874055
    },
    {
        "name": "광주광역시 사회재난과 - 서구 화운로99번길 13",
        "lat": 35.148604,
        "lng": 126.878254
    },
    {
        "name": "광주광역시 사회재난과 - 서구 화운로99번길 13",
        "lat": 35.148604,
        "lng": 126.878254
    },
    {
        "name": "광주광역시 사회재난과 - 서구 상무대로1066번길 16",
        "lat": 35.150992,
        "lng": 126.87962
    },
    {
        "name": "광주광역시 사회재난과 - 서구 상무대로1066번길 16",
        "lat": 35.150992,
        "lng": 126.87962
    },
    {
        "name": "광주광역시 사회재난과 - 서구 상무대로1066번길 16",
        "lat": 35.150992,
        "lng": 126.87962
    },
    {
        "name": "광주광역시 사회재난과 - 서구 상무대로1066번길 16",
        "lat": 35.150992,
        "lng": 126.87962
    },
    {
        "name": "광주광역시 사회재난과 - 서구 화운로126번길 7",
        "lat": 35.150703,
        "lng": 126.878784
    },
    {
        "name": "광주광역시 사회재난과 - 서구 화운로126번길 7",
        "lat": 35.150703,
        "lng": 126.878784
    },
    {
        "name": "광주광역시 사회재난과 - 서구 화운로126번길 7",
        "lat": 35.150703,
        "lng": 126.878784
    },
    {
        "name": "광주광역시 사회재난과 - 서구 화운로156번길 16-1",
        "lat": 35.152941,
        "lng": 126.878483
    },
    {
        "name": "광주광역시 사회재난과 - 서구 화운로156번길 16-1",
        "lat": 35.152941,
        "lng": 126.878483
    },
    {
        "name": "광주광역시 사회재난과 - 서구 화정로138번길 13",
        "lat": 35.144108,
        "lng": 126.872727
    },
    {
        "name": "광주광역시 사회재난과 - 서구 화정로138번길 13",
        "lat": 35.144108,
        "lng": 126.872727
    },
    {
        "name": "광주광역시 사회재난과 - 서구 화정로182번길 9",
        "lat": 35.14454,
        "lng": 126.877516
    },
    {
        "name": "광주광역시 사회재난과 - 서구 월드컵4강로68번길 21",
        "lat": 35.143355,
        "lng": 126.877006
    },
    {
        "name": "광주광역시 사회재난과 - 서구 월드컵4강로68번길 21",
        "lat": 35.143355,
        "lng": 126.877006
    },
    {
        "name": "광주광역시 사회재난과 - 서구 월드컵4강로68번길 21",
        "lat": 35.143355,
        "lng": 126.877006
    },
    {
        "name": "광주광역시 사회재난과 - 서구 염화로103번길 3",
        "lat": 35.143127,
        "lng": 126.875838
    },
    {
        "name": "광주광역시 사회재난과 - 서구 염화로103번길 3",
        "lat": 35.143127,
        "lng": 126.875838
    },
    {
        "name": "광주광역시 사회재난과 - 서구 염화로133번길 3",
        "lat": 35.143613,
        "lng": 126.879113
    },
    {
        "name": "광주광역시 사회재난과 - 서구 월드컵4강로42번길 5-1",
        "lat": 35.141152,
        "lng": 126.876629
    },
    {
        "name": "광주광역시 사회재난과 - 서구 화정로 149",
        "lat": 35.145904,
        "lng": 126.874187
    },
    {
        "name": "광주광역시 사회재난과 - 서구 화정로 149",
        "lat": 35.145904,
        "lng": 126.874187
    },
    {
        "name": "광주광역시 사회재난과 - 서구 월드컵4강로71번길 26",
        "lat": 35.143385,
        "lng": 126.871363
    },
    {
        "name": "광주광역시 사회재난과 - 서구 화정로244번길 33-1",
        "lat": 35.144384,
        "lng": 126.885651
    },
    {
        "name": "광주광역시 사회재난과 - 서구 화정로244번길 33-1",
        "lat": 35.144384,
        "lng": 126.885651
    },
    {
        "name": "광주광역시 사회재난과 - 서구 내방로318번길 7",
        "lat": 35.156884,
        "lng": 126.875433
    },
    {
        "name": "광주광역시 사회재난과 - 서구 내방로318번길 7",
        "lat": 35.156884,
        "lng": 126.875433
    },
    {
        "name": "광주광역시 사회재난과 - 서구 내방로318번길 7",
        "lat": 35.156884,
        "lng": 126.875433
    },
    {
        "name": "광주광역시 사회재난과 - 서구 월산로268번길 13",
        "lat": 35.15995,
        "lng": 126.890045
    },
    {
        "name": "광주광역시 사회재난과 - 서구 월산로268번길 13",
        "lat": 35.15995,
        "lng": 126.890045
    },
    {
        "name": "광주광역시 사회재난과 - 서구 풍금로24번길 6",
        "lat": 35.1221,
        "lng": 126.865302
    },
    {
        "name": "광주광역시 사회재난과 - 서구 풍금로24번길 6",
        "lat": 35.1221,
        "lng": 126.865302
    },
    {
        "name": "광주광역시 사회재난과 - 서구 벽진월산길 46",
        "lat": 35.131358,
        "lng": 126.838542
    },
    {
        "name": "광주광역시 사회재난과 - 서구 벽진월산길 46",
        "lat": 35.131358,
        "lng": 126.838542
    },
    {
        "name": "광주광역시 사회재난과 - 서구 대남대로420번길 17-18",
        "lat": 35.124134,
        "lng": 126.937617
    },
    {
        "name": "광주광역시 사회재난과 - 서구 대남대로420번길 17-18",
        "lat": 35.124134,
        "lng": 126.937617
    },
    {
        "name": "광주광역시 사회재난과 - 서구 대남대로420번길 17-18",
        "lat": 35.124134,
        "lng": 126.937617
    },
    {
        "name": "광주광역시 사회재난과 - 서구 눌재로 418",
        "lat": 35.11537,
        "lng": 126.829849
    },
    {
        "name": "광주광역시 사회재난과 - 서구 눌재로 418",
        "lat": 35.11537,
        "lng": 126.829849
    },
    {
        "name": "광주광역시 사회재난과 - 서구 서창둑길 18",
        "lat": 35.110041,
        "lng": 126.821837
    },
    {
        "name": "광주광역시 사회재난과 - 서구 서창둑길 18",
        "lat": 35.110041,
        "lng": 126.821837
    },
    {
        "name": "광주광역시 사회재난과 - 서구 대남대로 433",
        "lat": 35.149017,
        "lng": 126.887485
    },
    {
        "name": "광주광역시 사회재난과 - 서구 대남대로 433",
        "lat": 35.149017,
        "lng": 126.887485
    },
    {
        "name": "광주광역시 사회재난과 - 서구 천변좌로222번길 6-16",
        "lat": 35.155444,
        "lng": 126.900155
    },
    {
        "name": "광주광역시 사회재난과 - 서구 천변좌로222번길 6-16",
        "lat": 35.155444,
        "lng": 126.900155
    },
    {
        "name": "광주광역시 사회재난과 - 서구 경열로65번길 8",
        "lat": 35.151674,
        "lng": 126.892923
    },
    {
        "name": "광주광역시 사회재난과 - 서구 경열로65번길 8",
        "lat": 35.151674,
        "lng": 126.892923
    },
    {
        "name": "광주광역시 사회재난과 - 서구 상무민주로123번길 23-4",
        "lat": 35.16156,
        "lng": 126.857172
    },
    {
        "name": "광주광역시 사회재난과 - 서구 상무민주로123번길 23-4",
        "lat": 35.16156,
        "lng": 126.857172
    },
    {
        "name": "광주광역시 사회재난과 - 서구 유덕로 159",
        "lat": 35.167645,
        "lng": 126.837791
    },
    {
        "name": "광주광역시 사회재난과 - 서구 유덕로 159",
        "lat": 35.167645,
        "lng": 126.837791
    },
    {
        "name": "광주광역시 사회재난과 - 서구 상무버들로53번길 45",
        "lat": 35.164986,
        "lng": 126.856298
    },
    {
        "name": "광주광역시 사회재난과 - 서구 상무버들로53번길 45",
        "lat": 35.164986,
        "lng": 126.856298
    },
    {
        "name": "광주광역시 사회재난과 - 서구 칠성로35번길 6-5",
        "lat": 35.166935,
        "lng": 126.860919
    },
    {
        "name": "광주광역시 사회재난과 - 서구 칠성로35번길 6-5",
        "lat": 35.166935,
        "lng": 126.860919
    },
    {
        "name": "광주광역시 사회재난과 - 서구 칠성로52번길 4",
        "lat": 35.16605,
        "lng": 126.863194
    },
    {
        "name": "광주광역시 사회재난과 - 서구 칠성로52번길 4",
        "lat": 35.16605,
        "lng": 126.863194
    },
    {
        "name": "광주광역시 사회재난과 - 서구 상무버들로16번길 6-10",
        "lat": 35.164126,
        "lng": 126.86328
    },
    {
        "name": "광주광역시 사회재난과 - 서구 상무버들로16번길 6-10",
        "lat": 35.164126,
        "lng": 126.86328
    },
    {
        "name": "광주광역시 사회재난과 - 서구 용두길 38",
        "lat": 35.09871,
        "lng": 126.819133
    },
    {
        "name": "광주광역시 사회재난과 - 서구 경열로103번길 6-3",
        "lat": 35.152823,
        "lng": 126.896713
    },
    {
        "name": "광주광역시 사회재난과 - 서구 대남대로487번길 25",
        "lat": 35.15064,
        "lng": 126.884944
    },
    {
        "name": "광주광역시 사회재난과 - 서구 내방로404번길 5",
        "lat": 35.157865,
        "lng": 126.885316
    },
    {
        "name": "광주광역시 사회재난과 - 서구 천변좌로 20-3",
        "lat": 35.165674,
        "lng": 126.885295
    },
    {
        "name": "광주광역시 사회재난과 - 서구 서창1길 15-26",
        "lat": 35.108405,
        "lng": 126.822398
    },
    {
        "name": "광주광역시 사회재난과 - 서구 월드컵4강로164번길 19",
        "lat": 35.151013,
        "lng": 126.871839
    },
    {
        "name": "광주광역시 사회재난과 - 서구 월드컵4강로164번길 19",
        "lat": 35.151013,
        "lng": 126.871839
    },
    {
        "name": "광주광역시 사회재난과 - 서구 천변우하로 375",
        "lat": 35.168751,
        "lng": 126.861366
    },
    {
        "name": "광주광역시 사회재난과 - 서구 월드컵4강로182번길 7",
        "lat": 35.152281,
        "lng": 126.870526
    },
    {
        "name": "광주광역시 사회재난과 - 서구 벽진길 1",
        "lat": 35.133404,
        "lng": 126.831691
    },
    {
        "name": "광주광역시 사회재난과 - 서구 벽진길 1",
        "lat": 35.133404,
        "lng": 126.831691
    },
    {
        "name": "광주광역시 사회재난과 - 서구 월드컵4강로229번길 8-1",
        "lat": 35.156488,
        "lng": 126.868228
    },
    {
        "name": "광주광역시 사회재난과 - 서구 월드컵4강로229번길 8-1",
        "lat": 35.156488,
        "lng": 126.868228
    },
    {
        "name": "광주광역시 사회재난과 - 서구 서남길 18",
        "lat": 35.093432,
        "lng": 126.814798
    },
    {
        "name": "광주광역시 사회재난과 - 서구 염화로 146",
        "lat": 35.143227,
        "lng": 126.880501
    },
    {
        "name": "광주광역시 사회재난과 - 서구 눌재로 110",
        "lat": 35.095734,
        "lng": 126.825872
    },
    {
        "name": "광주광역시 사회재난과 - 서구 죽봉대로120번길 10-9",
        "lat": 35.163373,
        "lng": 126.88523
    },
    {
        "name": "광주광역시 사회재난과 - 서구 죽봉대로120번길 10-9",
        "lat": 35.163373,
        "lng": 126.88523
    },
    {
        "name": "광주광역시 사회재난과 - 서구 상무대로967번길 12",
        "lat": 35.15274,
        "lng": 126.8677
    },
    {
        "name": "광주광역시 사회재난과 - 서구 상무대로967번길 12",
        "lat": 35.15274,
        "lng": 126.8677
    },
    {
        "name": "광주광역시 사회재난과 - 서구 상무대로967번길 12",
        "lat": 35.15274,
        "lng": 126.8677
    },
    {
        "name": "광주광역시 사회재난과 - 서구 죽봉대로147번길 28",
        "lat": 35.166652,
        "lng": 126.880731
    },
    {
        "name": "광주광역시 사회재난과 - 서구 죽봉대로147번길 28",
        "lat": 35.166652,
        "lng": 126.880731
    },
    {
        "name": "광주광역시 사회재난과 - 서구 화개중앙로86번길 1",
        "lat": 35.126374,
        "lng": 126.853413
    },
    {
        "name": "광주광역시 사회재난과 - 서구 화개중앙로86번길 1",
        "lat": 35.126374,
        "lng": 126.853413
    },
    {
        "name": "광주광역시 사회재난과 - 서구 금화로 41",
        "lat": 35.132134,
        "lng": 126.8536
    },
    {
        "name": "광주광역시 사회재난과 - 서구 금화로 41",
        "lat": 35.132134,
        "lng": 126.8536
    },
    {
        "name": "광주광역시 사회재난과 - 서구 화개중앙로114번길 4",
        "lat": 35.128076,
        "lng": 126.851851
    },
    {
        "name": "광주광역시 사회재난과 - 서구 화개중앙로114번길 4",
        "lat": 35.128076,
        "lng": 126.851851
    },
    {
        "name": "광주광역시 사회재난과 - 서구 화개중앙로114번길 4",
        "lat": 35.128076,
        "lng": 126.851851
    },
    {
        "name": "광주광역시 사회재난과 - 서구 금화로 53",
        "lat": 35.132181,
        "lng": 126.854591
    },
    {
        "name": "광주광역시 사회재난과 - 서구 금화로 53",
        "lat": 35.132181,
        "lng": 126.854591
    },
    {
        "name": "광주광역시 사회재난과 - 서구 운천로91번길 9",
        "lat": 35.140656,
        "lng": 126.857444
    },
    {
        "name": "광주광역시 사회재난과 - 서구 운천로91번길 9",
        "lat": 35.140425,
        "lng": 126.857545
    },
    {
        "name": "광주광역시 사회재난과 - 서구 금호운천길 10",
        "lat": 35.136484,
        "lng": 126.8574
    },
    {
        "name": "광주광역시 사회재난과 - 서구 금호운천길 10",
        "lat": 35.136484,
        "lng": 126.8574
    },
    {
        "name": "광주광역시 사회재난과 - 서구 금화로115번길 52",
        "lat": 35.137666,
        "lng": 126.861183
    },
    {
        "name": "광주광역시 사회재난과 - 서구 금화로115번길 52",
        "lat": 35.137666,
        "lng": 126.861183
    },
    {
        "name": "광주광역시 사회재난과 - 서구 금화로73번길 28-8",
        "lat": 35.134554,
        "lng": 126.857364
    },
    {
        "name": "광주광역시 사회재난과 - 서구 금화로73번길 28-8",
        "lat": 35.134629,
        "lng": 126.85719
    },
    {
        "name": "광주광역시 사회재난과 - 서구 금화로115번길 22",
        "lat": 35.135451,
        "lng": 126.861954
    },
    {
        "name": "광주광역시 사회재난과 - 서구 마재로 27",
        "lat": 35.130128,
        "lng": 126.863348
    },
    {
        "name": "광주광역시 사회재난과 - 서구 풍금로 135",
        "lat": 35.129148,
        "lng": 126.857331
    },
    {
        "name": "광주광역시 사회재난과 - 서구 풍금로 135",
        "lat": 35.129536,
        "lng": 126.857472
    },
    {
        "name": "광주광역시 사회재난과 - 서구 풍금로 135",
        "lat": 35.129536,
        "lng": 126.857472
    },
    {
        "name": "광주광역시 사회재난과 - 서구 화개중앙로 48",
        "lat": 35.124768,
        "lng": 126.856321
    },
    {
        "name": "광주광역시 사회재난과 - 서구 화정로276번길 5",
        "lat": 35.148132,
        "lng": 126.887234
    },
    {
        "name": "광주광역시 사회재난과 - 서구 화정로276번길 5",
        "lat": 35.148132,
        "lng": 126.887234
    },
    {
        "name": "광주광역시 사회재난과 - 서구 동천로 7",
        "lat": 35.168585,
        "lng": 126.859496
    },
    {
        "name": "광주광역시 사회재난과 - 서구 동천로 7",
        "lat": 35.168585,
        "lng": 126.859496
    },
    {
        "name": "광주광역시 사회재난과 - 서구 동천로 7",
        "lat": 35.169178,
        "lng": 126.860006
    },
    {
        "name": "광주광역시 사회재난과 - 서구 동천로 7",
        "lat": 35.169178,
        "lng": 126.860006
    },
    {
        "name": "광주광역시 사회재난과 - 서구 하남대로680번길 27",
        "lat": 35.168809,
        "lng": 126.866899
    },
    {
        "name": "광주광역시 사회재난과 - 서구 하남대로710번길 19",
        "lat": 35.16977,
        "lng": 126.870211
    },
    {
        "name": "광주광역시 사회재난과 - 서구 하남대로710번길 19",
        "lat": 35.16977,
        "lng": 126.870211
    },
    {
        "name": "광주광역시 사회재난과 - 서구 전평길 9",
        "lat": 35.115306,
        "lng": 126.849138
    },
    {
        "name": "광주광역시 사회재난과 - 서구 전평길 9",
        "lat": 35.115306,
        "lng": 126.849138
    },
    {
        "name": "광주광역시 사회재난과 - 서구 전평길 37-3",
        "lat": 35.116859,
        "lng": 126.847061
    },
    {
        "name": "광주광역시 사회재난과 - 서구 전평길 41",
        "lat": 35.117368,
        "lng": 126.847773
    },
    {
        "name": "광주광역시 사회재난과 - 서구 눌재로 410",
        "lat": 35.114376,
        "lng": 126.829719
    },
    {
        "name": "광주광역시 사회재난과 - 서구 유림로46번길 12",
        "lat": 35.166728,
        "lng": 126.864962
    },
    {
        "name": "광주광역시 사회재난과 - 서구 쌍촌로36번길 25",
        "lat": 35.147254,
        "lng": 126.866931
    },
    {
        "name": "광주광역시 사회재난과 - 서구 쌍촌로36번길 25",
        "lat": 35.147254,
        "lng": 126.866931
    },
    {
        "name": "광주광역시 사회재난과 - 서구 화정로85번길 26",
        "lat": 35.146945,
        "lng": 126.866993
    },
    {
        "name": "광주광역시 사회재난과 - 서구 화정로85번길 26",
        "lat": 35.147067,
        "lng": 126.866963
    },
    {
        "name": "광주광역시 사회재난과 - 서구 화정로85번길 26",
        "lat": 35.147067,
        "lng": 126.866963
    },
    {
        "name": "광주광역시 사회재난과 - 서구 화정로85번길 26",
        "lat": 35.146644,
        "lng": 126.867248
    },
    {
        "name": "광주광역시 사회재난과 - 서구 화정로49번길 14",
        "lat": 35.145815,
        "lng": 126.863227
    },
    {
        "name": "광주광역시 사회재난과 - 서구 화정로49번길 14",
        "lat": 35.145815,
        "lng": 126.863227
    },
    {
        "name": "광주광역시 사회재난과 - 서구 화정로49번길 14",
        "lat": 35.146082,
        "lng": 126.863487
    },
    {
        "name": "광주광역시 사회재난과 - 서구 화정로49번길 14",
        "lat": 35.146082,
        "lng": 126.863487
    },
    {
        "name": "광주광역시 사회재난과 - 서구 화정로 106-25",
        "lat": 35.143902,
        "lng": 126.869289
    },
    {
        "name": "광주광역시 사회재난과 - 서구 화정로21번길 4-21",
        "lat": 35.145136,
        "lng": 126.860992
    },
    {
        "name": "광주광역시 사회재난과 - 서구 운천로114번길 7-10",
        "lat": 35.143585,
        "lng": 126.858863
    },
    {
        "name": "광주광역시 사회재난과 - 서구 운천로114번길 7-10",
        "lat": 35.143585,
        "lng": 126.858863
    },
    {
        "name": "광주광역시 사회재난과 - 서구 금부로95번길 48-12",
        "lat": 35.143951,
        "lng": 126.858861
    },
    {
        "name": "광주광역시 사회재난과 - 서구 금부로95번길 48-12",
        "lat": 35.143951,
        "lng": 126.858861
    },
    {
        "name": "광주광역시 사회재난과 - 서구 금부로95번길 48-12",
        "lat": 35.143951,
        "lng": 126.858861
    },
    {
        "name": "광주광역시 사회재난과 - 서구 금부로95번길 26-11",
        "lat": 35.142076,
        "lng": 126.858899
    },
    {
        "name": "광주광역시 사회재난과 - 서구 금부로95번길 26-11",
        "lat": 35.142076,
        "lng": 126.858899
    },
    {
        "name": "광주광역시 사회재난과 - 서구 금부로95번길 26-11",
        "lat": 35.143132,
        "lng": 126.859656
    },
    {
        "name": "광주광역시 사회재난과 - 서구 금부로95번길 26-11",
        "lat": 35.143132,
        "lng": 126.859656
    },
    {
        "name": "광주광역시 사회재난과 - 서구 금부로95번길 26-11",
        "lat": 35.143132,
        "lng": 126.859656
    },
    {
        "name": "광주광역시 사회재난과 - 서구 금부로103번길 16-10",
        "lat": 35.141273,
        "lng": 126.860906
    },
    {
        "name": "광주광역시 사회재난과 - 서구 금부로103번길 16-10",
        "lat": 35.141273,
        "lng": 126.860906
    },
    {
        "name": "광주광역시 사회재난과 - 서구 금화로149번길 97",
        "lat": 35.141035,
        "lng": 126.861122
    },
    {
        "name": "광주광역시 사회재난과 - 서구 금화로149번길 97",
        "lat": 35.141035,
        "lng": 126.861122
    },
    {
        "name": "광주광역시 사회재난과 - 서구 금화로149번길 97",
        "lat": 35.141035,
        "lng": 126.861122
    },
    {
        "name": "광주광역시 사회재난과 - 서구 상무오월로19번길 4-13",
        "lat": 35.155931,
        "lng": 126.862408
    },
    {
        "name": "광주광역시 사회재난과 - 서구 상무오월로19번길 4-13",
        "lat": 35.155931,
        "lng": 126.862408
    },
    {
        "name": "광주광역시 사회재난과 - 서구 내방로 153",
        "lat": 35.159391,
        "lng": 126.858107
    },
    {
        "name": "광주광역시 사회재난과 - 서구 계수로59번길 4-9",
        "lat": 35.16119,
        "lng": 126.857634
    },
    {
        "name": "광주광역시 사회재난과 - 서구 계수로59번길 4-9",
        "lat": 35.16119,
        "lng": 126.857634
    },
    {
        "name": "광주광역시 사회재난과 - 서구 계수로59번길 4-9",
        "lat": 35.161017,
        "lng": 126.85743
    },
    {
        "name": "광주광역시 사회재난과 - 서구 상무오월로38번길 36",
        "lat": 35.15367,
        "lng": 126.86512
    },
    {
        "name": "광주광역시 사회재난과 - 서구 상무오월로38번길 36",
        "lat": 35.15367,
        "lng": 126.86512
    },
    {
        "name": "광주광역시 사회재난과 - 서구 상무오월로38번길 36",
        "lat": 35.15367,
        "lng": 126.86512
    },
    {
        "name": "광주광역시 사회재난과 - 서구 상무오월로38번길 11",
        "lat": 35.154882,
        "lng": 126.864024
    },
    {
        "name": "광주광역시 사회재난과 - 서구 상무오월로38번길 11",
        "lat": 35.154882,
        "lng": 126.864024
    },
    {
        "name": "광주광역시 사회재난과 - 서구 상무오월로38번길 11",
        "lat": 35.154882,
        "lng": 126.864024
    },
    {
        "name": "광주광역시 사회재난과 - 서구 운천로 165",
        "lat": 35.147354,
        "lng": 126.856323
    },
    {
        "name": "광주광역시 사회재난과 - 서구 운천로 165",
        "lat": 35.14673,
        "lng": 126.855146
    },
    {
        "name": "광주광역시 사회재난과 - 서구 금호운천길 67",
        "lat": 35.140987,
        "lng": 126.856318
    },
    {
        "name": "광주광역시 사회재난과 - 서구 금호운천길 67",
        "lat": 35.140987,
        "lng": 126.856318
    },
    {
        "name": "광주광역시 사회재난과 - 서구 운천로113번길 4-13",
        "lat": 35.14318,
        "lng": 126.856733
    },
    {
        "name": "광주광역시 사회재난과 - 서구 월드컵4강로197번길 5-4",
        "lat": 35.153769,
        "lng": 126.868795
    },
    {
        "name": "광주광역시 사회재난과 - 서구 월드컵4강로197번길 5-4",
        "lat": 35.153769,
        "lng": 126.868795
    },
    {
        "name": "광주광역시 사회재난과 - 서구 양동시장1길 26-2",
        "lat": 35.153417,
        "lng": 126.898812
    },
    {
        "name": "광주광역시 사회재난과 - 서구 양동시장1길 26-2",
        "lat": 35.153417,
        "lng": 126.898812
    },
    {
        "name": "광주광역시 사회재난과 - 서구 발산로 33-1",
        "lat": 35.158259,
        "lng": 126.894416
    },
    {
        "name": "광주광역시 사회재난과 - 서구 상무버들로54번길 5",
        "lat": 35.16644,
        "lng": 126.857884
    },
    {
        "name": "광주광역시 사회재난과 - 서구 상무버들로54번길 5",
        "lat": 35.16644,
        "lng": 126.857884
    },
    {
        "name": "광주광역시 사회재난과 - 서구 상무버들로 54",
        "lat": 35.164657,
        "lng": 126.857518
    },
    {
        "name": "광주광역시 사회재난과 - 서구 상무버들로 54",
        "lat": 35.164657,
        "lng": 126.857518
    },
    {
        "name": "광주광역시 사회재난과 - 서구 상무버들로 54",
        "lat": 35.164657,
        "lng": 126.857518
    },
    {
        "name": "광주광역시 사회재난과 - 서구 상무자유로 59",
        "lat": 35.154496,
        "lng": 126.842282
    },
    {
        "name": "광주광역시 사회재난과 - 서구 상무자유로 59",
        "lat": 35.154496,
        "lng": 126.842282
    },
    {
        "name": "광주광역시 사회재난과 - 서구 상무자유로 59",
        "lat": 35.152699,
        "lng": 126.840771
    },
    {
        "name": "광주광역시 사회재난과 - 서구 상무공원로 142",
        "lat": 35.156906,
        "lng": 126.843724
    },
    {
        "name": "광주광역시 사회재난과 - 서구 상무공원로 142",
        "lat": 35.156906,
        "lng": 126.843724
    },
    {
        "name": "광주광역시 사회재난과 - 서구 상무시민로 51",
        "lat": 35.156081,
        "lng": 126.84541
    },
    {
        "name": "광주광역시 사회재난과 - 서구 상무시민로 51",
        "lat": 35.155351,
        "lng": 126.844658
    },
    {
        "name": "광주광역시 사회재난과 - 서구 상무시민로 51",
        "lat": 35.155351,
        "lng": 126.844658
    },
    {
        "name": "광주광역시 사회재난과 - 서구 치평로 67",
        "lat": 35.15316,
        "lng": 126.846667
    },
    {
        "name": "광주광역시 사회재난과 - 서구 치평로 67",
        "lat": 35.15316,
        "lng": 126.846667
    },
    {
        "name": "광주광역시 사회재난과 - 서구 치평로 59",
        "lat": 35.152473,
        "lng": 126.846066
    },
    {
        "name": "광주광역시 사회재난과 - 서구 치평로 59",
        "lat": 35.152473,
        "lng": 126.846066
    },
    {
        "name": "광주광역시 사회재난과 - 서구 상무평화로 43",
        "lat": 35.148192,
        "lng": 126.843843
    },
    {
        "name": "광주광역시 사회재난과 - 서구 상무평화로 43",
        "lat": 35.148192,
        "lng": 126.843843
    },
    {
        "name": "광주광역시 사회재난과 - 서구 상무공원로 58",
        "lat": 35.14954,
        "lng": 126.844135
    },
    {
        "name": "광주광역시 사회재난과 - 서구 상무공원로 58",
        "lat": 35.149793,
        "lng": 126.843555
    },
    {
        "name": "광주광역시 사회재난과 - 서구 마륵로 115",
        "lat": 35.146555,
        "lng": 126.8434
    },
    {
        "name": "광주광역시 사회재난과 - 서구 마륵로 115",
        "lat": 35.146555,
        "lng": 126.8434
    },
    {
        "name": "광주광역시 사회재난과 - 서구 풍암순환로 28",
        "lat": 35.124095,
        "lng": 126.876024
    },
    {
        "name": "광주광역시 사회재난과 - 서구 풍암순환로 28",
        "lat": 35.124095,
        "lng": 126.876024
    },
    {
        "name": "광주광역시 사회재난과 - 서구 풍암2로 56",
        "lat": 35.12318,
        "lng": 126.880589
    },
    {
        "name": "광주광역시 사회재난과 - 서구 풍암2로 56",
        "lat": 35.12318,
        "lng": 126.880589
    },
    {
        "name": "광주광역시 사회재난과 - 서구 풍암2로 26",
        "lat": 35.124921,
        "lng": 126.88029
    },
    {
        "name": "광주광역시 사회재난과 - 서구 풍암2로 26",
        "lat": 35.124921,
        "lng": 126.88029
    },
    {
        "name": "광주광역시 사회재난과 - 서구 풍암중앙로 83",
        "lat": 35.126945,
        "lng": 126.882189
    },
    {
        "name": "광주광역시 사회재난과 - 서구 풍암중앙로 83",
        "lat": 35.126437,
        "lng": 126.883266
    },
    {
        "name": "광주광역시 사회재난과 - 서구 풍암중앙로 83",
        "lat": 35.126437,
        "lng": 126.883266
    },
    {
        "name": "광주광역시 사회재난과 - 서구 풍암중앙로91번길 14",
        "lat": 35.127532,
        "lng": 126.883577
    },
    {
        "name": "광주광역시 사회재난과 - 서구 풍암중앙로91번길 14",
        "lat": 35.127532,
        "lng": 126.883577
    },
    {
        "name": "광주광역시 사회재난과 - 서구 풍암순환로109번길 4",
        "lat": 35.121343,
        "lng": 126.883583
    },
    {
        "name": "광주광역시 사회재난과 - 서구 풍암운리로7번길 5",
        "lat": 35.122726,
        "lng": 126.864056
    },
    {
        "name": "광주광역시 사회재난과 - 서구 풍암운리로7번길 5",
        "lat": 35.122726,
        "lng": 126.864056
    },
    {
        "name": "광주광역시 사회재난과 - 서구 풍암운리로7번길 5",
        "lat": 35.122573,
        "lng": 126.864567
    },
    {
        "name": "광주광역시 사회재난과 - 서구 풍암운리로7번길 5",
        "lat": 35.122573,
        "lng": 126.864567
    },
    {
        "name": "광주광역시 사회재난과 - 서구 풍금로38번길 4-20",
        "lat": 35.123259,
        "lng": 126.864359
    },
    {
        "name": "광주광역시 사회재난과 - 서구 풍금로38번길 4-20",
        "lat": 35.123259,
        "lng": 126.864359
    },
    {
        "name": "광주광역시 사회재난과 - 서구 풍암운리로23번길 5",
        "lat": 35.123728,
        "lng": 126.866158
    },
    {
        "name": "광주광역시 사회재난과 - 서구 풍암운리로23번길 5",
        "lat": 35.123129,
        "lng": 126.865284
    },
    {
        "name": "광주광역시 사회재난과 - 서구 월드컵4강로146번길 10",
        "lat": 35.149253,
        "lng": 126.87204
    },
    {
        "name": "광주광역시 사회재난과 - 서구 월드컵4강로146번길 10",
        "lat": 35.149253,
        "lng": 126.87204
    },
    {
        "name": "광주광역시 사회재난과 - 서구 화운로 36",
        "lat": 35.144164,
        "lng": 126.884378
    },
    {
        "name": "광주광역시 사회재난과 - 서구 월드컵4강로146번길 10",
        "lat": 35.147977,
        "lng": 126.872756
    },
    {
        "name": "광주광역시 사회재난과 - 서구 월드컵4강로146번길 10",
        "lat": 35.147977,
        "lng": 126.872756
    },
    {
        "name": "광주광역시 사회재난과 - 서구 상무대로1057번길 28",
        "lat": 35.154584,
        "lng": 126.877428
    },
    {
        "name": "광주광역시 사회재난과 - 서구 상무대로1057번길 28",
        "lat": 35.154584,
        "lng": 126.877428
    },
    {
        "name": "광주광역시 사회재난과 - 서구 상무대로1057번길 28",
        "lat": 35.154584,
        "lng": 126.877428
    },
    {
        "name": "광주광역시 사회재난과 - 서구 상무대로1057번길 28",
        "lat": 35.143491,
        "lng": 126.865876
    },
    {
        "name": "광주광역시 사회재난과 - 서구 화정로78번길 16-1",
        "lat": 35.143491,
        "lng": 126.865876
    },
    {
        "name": "광주광역시 사회재난과 - 서구 염화로83번길 20",
        "lat": 35.142638,
        "lng": 126.872427
    },
    {
        "name": "광주광역시 사회재난과 - 서구 염화로83번길 20",
        "lat": 35.142638,
        "lng": 126.872427
    },
    {
        "name": "광주광역시 사회재난과 - 서구 염화로31번길 10",
        "lat": 35.137388,
        "lng": 126.871637
    },
    {
        "name": "광주광역시 사회재난과 - 서구 염화로31번길 10",
        "lat": 35.137388,
        "lng": 126.871637
    },
    {
        "name": "광주광역시 사회재난과 - 서구 유덕로 22",
        "lat": 35.164947,
        "lng": 126.851836
    },
    {
        "name": "광주광역시 사회재난과 - 서구 마륵로 23",
        "lat": 35.142936,
        "lng": 126.834993
    },
    {
        "name": "광주광역시 사회재난과 - 서구 마륵로 23",
        "lat": 35.142936,
        "lng": 126.834993
    },
    {
        "name": "광주광역시 사회재난과 - 서구 월드컵4강로42번길 51-3",
        "lat": 35.14179,
        "lng": 126.881387
    },
    {
        "name": "광주광역시 사회재난과 - 서구 화운로314번길 7",
        "lat": 35.167028,
        "lng": 126.878086
    },
    {
        "name": "광주광역시 사회재난과 - 서구 화운로314번길 7",
        "lat": 35.167028,
        "lng": 126.878086
    },
    {
        "name": "광주광역시 사회재난과 - 서구 상일로14번길 13",
        "lat": 35.157382,
        "lng": 126.864656
    },
    {
        "name": "광주광역시 사회재난과 - 서구 상일로14번길 13",
        "lat": 35.157382,
        "lng": 126.864656
    },
    {
        "name": "광주광역시 사회재난과 - 서구 칠성로4번길 16",
        "lat": 35.165508,
        "lng": 126.858341
    },
    {
        "name": "광주광역시 사회재난과 - 서구 칠성로4번길 16",
        "lat": 35.165508,
        "lng": 126.858341
    },
    {
        "name": "광주광역시 사회재난과 - 서구 칠성로4번길 16",
        "lat": 35.165508,
        "lng": 126.858341
    },
    {
        "name": "광주광역시 사회재난과 - 서구 금화로115번길 3",
        "lat": 35.133134,
        "lng": 126.860068
    },
    {
        "name": "광주광역시 사회재난과 - 서구 금화로115번길 3",
        "lat": 35.133134,
        "lng": 126.860068
    },
    {
        "name": "광주광역시 사회재난과 - 서구 상무자유로 25",
        "lat": 35.151775,
        "lng": 126.836997
    },
    {
        "name": "광주광역시 사회재난과 - 서구 상무자유로 25",
        "lat": 35.151775,
        "lng": 126.836997
    },
    {
        "name": "광주광역시 사회재난과 - 서구 칠성로 21-1",
        "lat": 35.166552,
        "lng": 126.860161
    },
    {
        "name": "광주광역시 사회재난과 - 서구 칠성로 21-1",
        "lat": 35.166552,
        "lng": 126.860161
    },
    {
        "name": "광주광역시 사회재난과 - 서구 염화로104번길 25",
        "lat": 35.140461,
        "lng": 126.877056
    },
    {
        "name": "광주광역시 사회재난과 - 서구 염화로104번길 25",
        "lat": 35.140461,
        "lng": 126.877056
    },
    {
        "name": "광주광역시 사회재난과 - 서구 월드컵4강로28번길 30-1",
        "lat": 35.1396,
        "lng": 126.879588
    },
    {
        "name": "광주광역시 사회재난과 - 서구 월드컵4강로28번길 30-1",
        "lat": 35.1396,
        "lng": 126.879588
    },
    {
        "name": "광주광역시 사회재난과 - 서구 백석길 1",
        "lat": 35.142822,
        "lng": 126.850047
    },
    {
        "name": "광주광역시 사회재난과 - 서구 백석길 1",
        "lat": 35.142822,
        "lng": 126.850047
    },
    {
        "name": "광주광역시 사회재난과 - 서구 금화로115번길 52",
        "lat": 35.137282,
        "lng": 126.861373
    },
    {
        "name": "광주광역시 사회재난과 - 서구 금화로115번길 52",
        "lat": 35.137282,
        "lng": 126.861373
    },
    {
        "name": "광주광역시 사회재난과 - 서구 금화로149번길 62",
        "lat": 35.137911,
        "lng": 126.862959
    },
    {
        "name": "광주광역시 사회재난과 - 서구 금화로149번길 62",
        "lat": 35.137911,
        "lng": 126.862959
    },
    {
        "name": "광주광역시 사회재난과 - 서구 천변우하로 469",
        "lat": 35.168438,
        "lng": 126.870263
    },
    {
        "name": "광주광역시 사회재난과 - 서구 천변우하로 469",
        "lat": 35.168438,
        "lng": 126.870263
    },
    {
        "name": "광주광역시 사회재난과 - 서구 천변우하로 337",
        "lat": 35.168201,
        "lng": 126.857978
    },
    {
        "name": "광주광역시 사회재난과 - 서구 천변우하로 337",
        "lat": 35.168201,
        "lng": 126.857978
    },
    {
        "name": "광주광역시 사회재난과 - 서구 상무민주로6번길 17",
        "lat": 35.151559,
        "lng": 126.859818
    },
    {
        "name": "광주광역시 사회재난과 - 서구 상무민주로6번길 17",
        "lat": 35.151559,
        "lng": 126.859818
    },
    {
        "name": "광주광역시 사회재난과 - 서구 금화로73번길 22",
        "lat": 35.134256,
        "lng": 126.857235
    },
    {
        "name": "광주광역시 사회재난과 - 서구 금화로73번길 22",
        "lat": 35.134256,
        "lng": 126.857235
    },
    {
        "name": "광주광역시 사회재난과 - 서구 풍암순환로109번길 10",
        "lat": 35.121626,
        "lng": 126.882937
    },
    {
        "name": "광주광역시 사회재난과 - 서구 금호운천길 58-10",
        "lat": 35.140823,
        "lng": 126.857306
    },
    {
        "name": "광주광역시 사회재난과 - 서구 금호운천길 58-10",
        "lat": 35.140823,
        "lng": 126.857306
    },
    {
        "name": "광주광역시 사회재난과 - 서구 대남대로487번길 10",
        "lat": 35.152107,
        "lng": 126.884252
    },
    {
        "name": "광주광역시 사회재난과 - 서구 대남대로487번길 10",
        "lat": 35.152107,
        "lng": 126.884252
    },
    {
        "name": "광주광역시 사회재난과 - 서구 내방로240번길 13",
        "lat": 35.156896,
        "lng": 126.867243
    },
    {
        "name": "광주광역시 사회재난과 - 서구 내방로240번길 13",
        "lat": 35.156896,
        "lng": 126.867243
    },
    {
        "name": "광주광역시 사회재난과 - 서구 학생독립로 11",
        "lat": 35.14389,
        "lng": 126.867259
    },
    {
        "name": "광주광역시 사회재난과 - 서구 학생독립로 11",
        "lat": 35.14389,
        "lng": 126.867259
    },
    {
        "name": "광주광역시 사회재난과 - 서구 월드컵4강로68번길 17",
        "lat": 35.143421,
        "lng": 126.876326
    },
    {
        "name": "광주광역시 사회재난과 - 서구 월드컵4강로68번길 17",
        "lat": 35.143421,
        "lng": 126.876326
    },
    {
        "name": "광주광역시 사회재난과 - 서구 화정로138번길 12",
        "lat": 35.144374,
        "lng": 126.872419
    },
    {
        "name": "광주광역시 사회재난과 - 서구 화정로138번길 12",
        "lat": 35.144374,
        "lng": 126.872419
    },
    {
        "name": "광주광역시 사회재난과 - 서구 월드컵4강로42번길 12-8",
        "lat": 35.141155,
        "lng": 126.876838
    },
    {
        "name": "광주광역시 사회재난과 - 서구 월드컵4강로42번길 12-8",
        "lat": 35.141155,
        "lng": 126.876838
    },
    {
        "name": "광주광역시 사회재난과 - 서구 시청서편로12번길 8",
        "lat": 35.159662,
        "lng": 126.846424
    },
    {
        "name": "광주광역시 사회재난과 - 서구 시청서편로12번길 8",
        "lat": 35.159662,
        "lng": 126.846424
    },
    {
        "name": "광주광역시 사회재난과 - 서구 서창발산길 17-8",
        "lat": 35.107168,
        "lng": 126.822945
    },
    {
        "name": "광주광역시 사회재난과 - 서구 서창발산길 17-8",
        "lat": 35.107168,
        "lng": 126.822945
    },
    {
        "name": "광주광역시 사회재난과 - 서구 화운로23번길 12-14",
        "lat": 35.143114,
        "lng": 126.883076
    },
    {
        "name": "광주광역시 사회재난과 - 서구 화운로23번길 12-14",
        "lat": 35.143114,
        "lng": 126.883076
    },
    {
        "name": "광주광역시 사회재난과 - 서구 쌍촌로43번길 1",
        "lat": 35.148687,
        "lng": 126.864651
    },
    {
        "name": "광주광역시 사회재난과 - 서구 쌍촌로43번길 1",
        "lat": 35.148687,
        "lng": 126.864651
    },
    {
        "name": "광주광역시 사회재난과 - 서구 화개1로 45",
        "lat": 35.127665,
        "lng": 126.854982
    },
    {
        "name": "광주광역시 사회재난과 - 서구 화개1로 45",
        "lat": 35.127665,
        "lng": 126.854982
    },
    {
        "name": "광주광역시 사회재난과 - 서구 백석길 20",
        "lat": 35.142902,
        "lng": 126.851372
    },
    {
        "name": "광주광역시 사회재난과 - 서구 백석길 20",
        "lat": 35.142902,
        "lng": 126.851372
    },
    {
        "name": "광주광역시 사회재난과 - 서구 내방로408번길 33",
        "lat": 35.156362,
        "lng": 126.88736
    },
    {
        "name": "광주광역시 사회재난과 - 서구 내방로408번길 33",
        "lat": 35.156362,
        "lng": 126.88736
    },
    {
        "name": "광주광역시 사회재난과 - 서구 월드컵4강로28번길 44",
        "lat": 35.140445,
        "lng": 126.88073
    },
    {
        "name": "광주광역시 사회재난과 - 서구 월드컵4강로28번길 44",
        "lat": 35.140445,
        "lng": 126.88073
    },
    {
        "name": "광주광역시 사회재난과 - 서구 칠성로 131",
        "lat": 35.166137,
        "lng": 126.872154
    },
    {
        "name": "광주광역시 사회재난과 - 서구 칠성로 131",
        "lat": 35.166137,
        "lng": 126.872154
    },
    {
        "name": "광주광역시 사회재난과 - 서구 염화로160번길 12",
        "lat": 35.1427,
        "lng": 126.88238
    },
    {
        "name": "광주광역시 사회재난과 - 서구 염화로160번길 12",
        "lat": 35.1427,
        "lng": 126.88238
    },
    {
        "name": "광주광역시 사회재난과 - 서구 염화로160번길 12",
        "lat": 35.1427,
        "lng": 126.88238
    },
    {
        "name": "광주광역시 사회재난과 - 서구 천변좌로130번길 20",
        "lat": 35.158325,
        "lng": 126.892446
    },
    {
        "name": "광주광역시 사회재난과 - 서구 천변좌로130번길 20",
        "lat": 35.158325,
        "lng": 126.892446
    },
    {
        "name": "광주광역시 사회재난과 - 서구 화정로78번길 16-20",
        "lat": 35.143577,
        "lng": 126.864598
    },
    {
        "name": "광주광역시 사회재난과 - 서구 화정로78번길 16-20",
        "lat": 35.143577,
        "lng": 126.864598
    },
    {
        "name": "광주광역시 사회재난과 - 서구 상무민주로 61",
        "lat": 35.152838,
        "lng": 126.85779
    },
    {
        "name": "광주광역시 사회재난과 - 서구 상무민주로 61",
        "lat": 35.152838,
        "lng": 126.85779
    },
    {
        "name": "광주광역시 사회재난과 - 서구 유림로98번길 4",
        "lat": 35.170877,
        "lng": 126.864282
    },
    {
        "name": "광주광역시 사회재난과 - 서구 상무민주로 61",
        "lat": 35.157384,
        "lng": 126.85828
    },
    {
        "name": "광주광역시 사회재난과 - 서구 상무민주로 61",
        "lat": 35.157384,
        "lng": 126.85828
    },
    {
        "name": "광주광역시 사회재난과 - 서구 상무민주로 61",
        "lat": 35.158173,
        "lng": 126.856686
    },
    {
        "name": "광주광역시 사회재난과 - 서구 상무민주로 61",
        "lat": 35.158173,
        "lng": 126.856686
    },
    {
        "name": "광주광역시 사회재난과 - 서구 회산길 12",
        "lat": 35.115308,
        "lng": 126.851369
    },
    {
        "name": "광주광역시 사회재난과 - 서구 회산길 12",
        "lat": 35.115308,
        "lng": 126.851369
    },
    {
        "name": "광주광역시 사회재난과 - 서구 월드컵4강로 129",
        "lat": 35.147489,
        "lng": 126.871654
    },
    {
        "name": "광주광역시 사회재난과 - 서구 화정로 149",
        "lat": 35.145943,
        "lng": 126.872944
    },
    {
        "name": "광주광역시 사회재난과 - 서구 화정로 149",
        "lat": 35.145943,
        "lng": 126.872944
    },
    {
        "name": "광주광역시 사회재난과 - 서구 금화로115번길 22",
        "lat": 35.134857,
        "lng": 126.861672
    },
    {
        "name": "광주광역시 사회재난과 - 서구 마재로 27",
        "lat": 35.130991,
        "lng": 126.862871
    },
    {
        "name": "광주광역시 사회재난과 - 서구 금화로 53",
        "lat": 35.132677,
        "lng": 126.854296
    },
    {
        "name": "광주광역시 사회재난과 - 서구 금호운천길 67",
        "lat": 35.140934,
        "lng": 126.855578
    },
    {
        "name": "광주광역시 사회재난과 - 서구 화개중앙로 48",
        "lat": 35.12504,
        "lng": 126.857002
    },
    {
        "name": "광주광역시 사회재난과 - 서구 눌재로 408",
        "lat": 35.113977,
        "lng": 126.831004
    },
    {
        "name": "광주광역시 사회재난과 - 서구 월산로 266",
        "lat": 35.159306,
        "lng": 126.890067
    },
    {
        "name": "광주광역시 사회재난과 - 서구 양동시장1길 26-2",
        "lat": 35.154043,
        "lng": 126.89789
    },
    {
        "name": "광주광역시 사회재난과 - 서구 하남대로710번길 19",
        "lat": 35.169537,
        "lng": 126.870834
    },
    {
        "name": "광주광역시 사회재난과 - 서구 하남대로680번길 27",
        "lat": 35.168457,
        "lng": 126.866962
    },
    {
        "name": "광주광역시 사회재난과 - 서구 동천로 7",
        "lat": 35.168995,
        "lng": 126.859456
    },
    {
        "name": "광주광역시 사회재난과 - 서구 상무오월로38번길 36",
        "lat": 35.154525,
        "lng": 126.864512
    },
    {
        "name": "광주광역시 사회재난과 - 서구 내방로 153",
        "lat": 35.159548,
        "lng": 126.857537
    },
    {
        "name": "광주광역시 사회재난과 - 서구 상무버들로54번길 5",
        "lat": 35.166037,
        "lng": 126.857241
    },
    {
        "name": "광주광역시 사회재난과 - 서구 상무버들로16번길 6-10",
        "lat": 35.165035,
        "lng": 126.862877
    },
    {
        "name": "광주광역시 사회재난과 - 서구 상무시민로 51",
        "lat": 35.155896,
        "lng": 126.844819
    },
    {
        "name": "광주광역시 사회재난과 - 서구 치평로 59",
        "lat": 35.152677,
        "lng": 126.846812
    },
    {
        "name": "광주광역시 사회재난과 - 서구 상무평화로 43",
        "lat": 35.148705,
        "lng": 126.843578
    },
    {
        "name": "광주광역시 사회재난과 - 서구 광천2길 33",
        "lat": 35.166798,
        "lng": 126.879411
    },
    {
        "name": "광주광역시 사회재난과 - 서구 염화로134번길 28",
        "lat": 35.141042,
        "lng": 126.878778
    },
    {
        "name": "광주광역시 사회재난과 - 서구 염화로 37",
        "lat": 35.138203,
        "lng": 126.872169
    },
    {
        "name": "광주광역시 사회재난과 - 서구 학생독립로 16",
        "lat": 35.143493,
        "lng": 126.866277
    },
    {
        "name": "광주광역시 사회재난과 - 서구 화운로 36",
        "lat": 35.144707,
        "lng": 126.883765
    },
    {
        "name": "광주광역시 사회재난과 - 서구 풍암중앙로 83",
        "lat": 35.126947,
        "lng": 126.883031
    },
    {
        "name": "광주광역시 사회재난과 - 서구 풍암2로 56",
        "lat": 35.122996,
        "lng": 126.880912
    },
    {
        "name": "광주광역시 사회재난과 - 서구 풍암중앙로 8",
        "lat": 35.123508,
        "lng": 126.875322
    },
    {
        "name": "광주광역시 사회재난과 - 서구 금부로95번길 26-11",
        "lat": 35.142829,
        "lng": 126.859202
    },
    {
        "name": "광주광역시 사회재난과 - 서구 화운로194번길 6",
        "lat": 35.155811,
        "lng": 126.877401
    },
    {
        "name": "광주광역시 사회재난과 - 서구 월드컵4강로146번길 10",
        "lat": 35.148813,
        "lng": 126.871967
    },
    {
        "name": "광주광역시 사회재난과 - 서구 풍암운리로23번길 5",
        "lat": 35.123515,
        "lng": 126.865795
    },
    {
        "name": "광주광역시 사회재난과 - 서구 천변좌로 108",
        "lat": 35.160467,
        "lng": 126.890884
    },
    {
        "name": "광주광역시 사회재난과 - 서구 천변좌로118번길 2",
        "lat": 35.160224,
        "lng": 126.891939
    },
    {
        "name": "광주광역시 사회재난과 - 서구 천변좌로118번길 2",
        "lat": 35.160224,
        "lng": 126.891939
    },
    {
        "name": "광주광역시 사회재난과 - 서구 천변좌로118번길 10-1",
        "lat": 35.159657,
        "lng": 126.891611
    },
    {
        "name": "광주광역시 사회재난과 - 서구 천변좌로108번길 17-15",
        "lat": 35.159224,
        "lng": 126.892148
    },
    {
        "name": "광주광역시 사회재난과 - 서구 천변좌로108번길 22-2",
        "lat": 35.158832,
        "lng": 126.891928
    },
    {
        "name": "광주광역시 사회재난과 - 서구 발산로 21-49",
        "lat": 35.158659,
        "lng": 126.891076
    },
    {
        "name": "광주광역시 사회재난과 - 서구 회재로 762",
        "lat": 35.114879,
        "lng": 126.851101
    },
    {
        "name": "광주광역시 사회재난과 - 서구 금호운천길 67",
        "lat": 35.140324,
        "lng": 126.85459
    },
    {
        "name": "광주광역시 사회재난과 - 서구 금호운천길 67",
        "lat": 35.140324,
        "lng": 126.85459
    },
    {
        "name": "광주광역시 사회재난과 - 서구 월산로169번길 1",
        "lat": 35.152701,
        "lng": 126.894878
    },
    {
        "name": "광주광역시 사회재난과 - 서구 월산로169번길 1",
        "lat": 35.152701,
        "lng": 126.894878
    },
    {
        "name": "광주광역시 사회재난과 - 서구 월산로169번길 1",
        "lat": 35.152701,
        "lng": 126.894878
    },
    {
        "name": "광주광역시 사회재난과 - 서구 운천로154번길 31",
        "lat": 35.146567,
        "lng": 126.860384
    },
    {
        "name": "광주광역시 사회재난과 - 서구 운천로154번길 31",
        "lat": 35.146567,
        "lng": 126.860384
    },
    {
        "name": "광주광역시 사회재난과 - 서구 풍금로 9",
        "lat": 35.121045,
        "lng": 126.865683
    },
    {
        "name": "광주광역시 사회재난과 - 서구 풍금로 9",
        "lat": 35.121045,
        "lng": 126.865683
    },
    {
        "name": "광주광역시 사회재난과 - 서구 상무대로1176번길 9",
        "lat": 35.153966,
        "lng": 126.891117
    },
    {
        "name": "광주광역시 사회재난과 - 서구 상무대로1176번길 9",
        "lat": 35.153966,
        "lng": 126.891117
    },
    {
        "name": "광주광역시 사회재난과 - 서구 천변좌하로584번길 19-4",
        "lat": 35.166987,
        "lng": 126.876052
    },
    {
        "name": "광주광역시 사회재난과 - 서구 천변좌하로584번길 19-4",
        "lat": 35.166987,
        "lng": 126.876052
    },
    {
        "name": "광주광역시 사회재난과 - 서구 금부로103번길 6",
        "lat": 35.140197,
        "lng": 126.860165
    },
    {
        "name": "광주광역시 사회재난과 - 서구 금부로103번길 6",
        "lat": 35.140197,
        "lng": 126.860165
    },
    {
        "name": "광주광역시 사회재난과 - 서구 천변우하로 261",
        "lat": 35.163298,
        "lng": 126.851653
    },
    {
        "name": "광주광역시 사회재난과 - 서구 천변우하로 261",
        "lat": 35.163298,
        "lng": 126.851653
    },
    {
        "name": "광주광역시 사회재난과 - 서구 월드컵4강로198번길 4-2",
        "lat": 35.153774,
        "lng": 126.87014
    },
    {
        "name": "광주광역시 사회재난과 - 서구 월드컵4강로198번길 4-2",
        "lat": 35.153774,
        "lng": 126.87014
    },
    {
        "name": "광주광역시 사회재난과 - 서구 천변좌로118번길 12",
        "lat": 35.15953,
        "lng": 126.891126
    },
    {
        "name": "광주광역시 사회재난과 - 서구 천변좌로118번길 12",
        "lat": 35.15953,
        "lng": 126.891126
    },
    {
        "name": "광주광역시 사회재난과 - 서구 천변좌로118번길 12",
        "lat": 35.15953,
        "lng": 126.891126
    },
    {
        "name": "광주광역시 사회재난과 - 서구 월드컵4강로42번길 23-26",
        "lat": 35.142578,
        "lng": 126.878065
    },
    {
        "name": "광주광역시 사회재난과 - 서구 월드컵4강로42번길 23-26",
        "lat": 35.142578,
        "lng": 126.878065
    },
    {
        "name": "광주광역시 사회재난과 - 서구 대남대로450번길 11-1",
        "lat": 35.150976,
        "lng": 126.887842
    },
    {
        "name": "광주광역시 사회재난과 - 서구 대남대로450번길 11-1",
        "lat": 35.150976,
        "lng": 126.887842
    },
    {
        "name": "광주광역시 사회재난과 - 서구 염화로 23-20",
        "lat": 35.135902,
        "lng": 126.872261
    },
    {
        "name": "광주광역시 사회재난과 - 서구 염화로 23-20",
        "lat": 35.135902,
        "lng": 126.872261
    },
    {
        "name": "광주광역시 사회재난과 - 서구 치평로 105",
        "lat": 35.157584,
        "lng": 126.847297
    },
    {
        "name": "광주광역시 사회재난과 - 서구 치평로 105",
        "lat": 35.157584,
        "lng": 126.847297
    },
    {
        "name": "광주광역시 사회재난과 - 서구 운천로154번길 39",
        "lat": 35.146395,
        "lng": 126.861597
    },
    {
        "name": "광주광역시 사회재난과 - 서구 금호운천길 15",
        "lat": 35.136277,
        "lng": 126.857142
    },
    {
        "name": "광주광역시 사회재난과 - 서구 금호심곡길 5",
        "lat": 35.134571,
        "lng": 126.855157
    },
    {
        "name": "광주광역시 사회재난과 - 서구 금호심곡길 5",
        "lat": 35.134571,
        "lng": 126.855157
    },
    {
        "name": "광주광역시 사회재난과 - 서구 금호만호길 55",
        "lat": 35.132614,
        "lng": 126.851566
    },
    {
        "name": "광주광역시 사회재난과 - 서구 화개1로 69",
        "lat": 35.130166,
        "lng": 126.855037
    },
    {
        "name": "광주광역시 사회재난과 - 서구 풍암순환로 70",
        "lat": 35.121135,
        "lng": 126.878227
    },
    {
        "name": "광주광역시 사회재난과 - 서구 상무대로1177번길 11",
        "lat": 35.155304,
        "lng": 126.889232
    },
    {
        "name": "광주광역시 사회재난과 - 서구 상무대로1177번길 11",
        "lat": 35.155304,
        "lng": 126.889232
    },
    {
        "name": "광주광역시 사회재난과 - 서구 시청로56번길 13",
        "lat": 35.15378,
        "lng": 126.853159
    },
    {
        "name": "광주광역시 사회재난과 - 서구 시청로56번길 13",
        "lat": 35.15378,
        "lng": 126.853159
    },
    {
        "name": "광주광역시 사회재난과 - 서구 금화로 53",
        "lat": 35.132767,
        "lng": 126.855041
    },
    {
        "name": "광주광역시 사회재난과 - 서구 금화로 53",
        "lat": 35.132767,
        "lng": 126.855041
    },
    {
        "name": "광주광역시 사회재난과 - 서구 경열로14번길 6",
        "lat": 35.152271,
        "lng": 126.887668
    },
    {
        "name": "광주광역시 사회재난과 - 서구 경열로14번길 6",
        "lat": 35.152271,
        "lng": 126.887668
    },
    {
        "name": "광주광역시 사회재난과 - 서구 운천로 15",
        "lat": 35.134102,
        "lng": 126.858588
    },
    {
        "name": "광주광역시 사회재난과 - 서구 운천로 15",
        "lat": 35.134102,
        "lng": 126.858588
    },
    {
        "name": "광주광역시 사회재난과 - 서구 상무번영로 11",
        "lat": 35.149786,
        "lng": 126.853151
    },
    {
        "name": "광주광역시 사회재난과 - 서구 상무번영로 11",
        "lat": 35.149786,
        "lng": 126.853151
    },
    {
        "name": "광주광역시 사회재난과 - 서구 월드컵4강로104번길 19-16",
        "lat": 35.146713,
        "lng": 126.875196
    },
    {
        "name": "광주광역시 사회재난과 - 서구 월드컵4강로104번길 19-16",
        "lat": 35.146713,
        "lng": 126.875196
    },
    {
        "name": "광주광역시 사회재난과 - 서구 풍암순환로 86",
        "lat": 35.121018,
        "lng": 126.880843
    },
    {
        "name": "광주광역시 사회재난과 - 서구 풍암순환로 86",
        "lat": 35.121018,
        "lng": 126.880843
    },
    {
        "name": "광주광역시 사회재난과 - 서구 무진대로 714",
        "lat": 35.161748,
        "lng": 126.858053
    },
    {
        "name": "광주광역시 사회재난과 - 서구 무진대로 714",
        "lat": 35.161748,
        "lng": 126.858053
    },
    {
        "name": "광주광역시 사회재난과 - 서구 무진대로 714",
        "lat": 35.161748,
        "lng": 126.858053
    },
    {
        "name": "광주광역시 사회재난과 - 서구 풍금로171번길 2-1",
        "lat": 35.131198,
        "lng": 126.859019
    },
    {
        "name": "광주광역시 사회재난과 - 서구 화정로271번길 13",
        "lat": 35.149515,
        "lng": 126.885269
    },
    {
        "name": "광주광역시 사회재난과 - 서구 상무대로1189번길 7-8",
        "lat": 35.155346,
        "lng": 126.890693
    },
    {
        "name": "광주광역시 사회재난과 - 서구 화정로74번길 8",
        "lat": 35.144012,
        "lng": 126.865601
    },
    {
        "name": "광주광역시 사회재난과 - 서구 월드컵4강로198번길 6-28",
        "lat": 35.15287,
        "lng": 126.870104
    },
    {
        "name": "광주광역시 사회재난과 - 서구 상무오월로15번길 28-23",
        "lat": 35.157585,
        "lng": 126.862575
    },
    {
        "name": "광주광역시 사회재난과 - 서구 상무오월로15번길 28-23",
        "lat": 35.157585,
        "lng": 126.862575
    },
    {
        "name": "광주광역시 사회재난과 - 서구 풍암신흥로11번길 4-1",
        "lat": 35.120161,
        "lng": 126.864431
    },
    {
        "name": "광주광역시 사회재난과 - 서구 군분2로 21-6",
        "lat": 35.154868,
        "lng": 126.880559
    },
    {
        "name": "광주광역시 사회재난과 - 서구 내방로418번길 22",
        "lat": 35.157868,
        "lng": 126.88708
    },
    {
        "name": "광주광역시 사회재난과 - 서구 광천시장길 1",
        "lat": 35.164345,
        "lng": 126.88053
    },
    {
        "name": "광주광역시 사회재난과 - 서구 광천시장길 1",
        "lat": 35.164345,
        "lng": 126.88053
    },
    {
        "name": "광주광역시 사회재난과 - 서구 염화로 56",
        "lat": 35.139689,
        "lng": 126.873112
    },
    {
        "name": "광주광역시 사회재난과 - 서구 화정로138번길 4-8",
        "lat": 35.144834,
        "lng": 126.872029
    },
    {
        "name": "광주광역시 사회재난과 - 서구 상무민주로6번길 27",
        "lat": 35.15399,
        "lng": 126.859605
    },
    {
        "name": "광주광역시 사회재난과 - 서구 상무버들로16번길 6-10",
        "lat": 35.164652,
        "lng": 126.861785
    },
    {
        "name": "광주광역시 사회재난과 - 서구 마재로 3",
        "lat": 35.131711,
        "lng": 126.860069
    },
    {
        "name": "광주광역시 사회재난과 - 서구 마재로 3",
        "lat": 35.131222,
        "lng": 126.860171
    },
    {
        "name": "광주광역시 사회재난과 - 서구 염화로134번길 18",
        "lat": 35.141902,
        "lng": 126.878914
    },
    {
        "name": "광주광역시 사회재난과 - 서구 상일로64번길 1",
        "lat": 35.161485,
        "lng": 126.863462
    },
    {
        "name": "광주광역시 사회재난과 - 서구 내방로 102",
        "lat": 35.156904,
        "lng": 126.851547
    },
    {
        "name": "광주광역시 사회재난과 - 서구 내방로 102",
        "lat": 35.15531,
        "lng": 126.851722
    },
    {
        "name": "광주광역시 사회재난과 - 서구 구성로19번길 5",
        "lat": 35.152918,
        "lng": 126.900346
    },
    {
        "name": "광주광역시 사회재난과 - 서구 구성로 21-1",
        "lat": 35.152441,
        "lng": 126.899919
    },
    {
        "name": "광주광역시 사회재난과 - 서구 구성로33번길 3",
        "lat": 35.152563,
        "lng": 126.901557
    },
    {
        "name": "광주광역시 사회재난과 - 서구 구성로 57",
        "lat": 35.150453,
        "lng": 126.902556
    },
    {
        "name": "광주광역시 사회재난과 - 서구 구성로 67",
        "lat": 35.149639,
        "lng": 126.903095
    },
    {
        "name": "광주광역시 사회재난과 - 서구 독립로185번길 11-1",
        "lat": 35.114642,
        "lng": 126.749012
    },
    {
        "name": "광주광역시 사회재난과 - 서구 월산로173번길 19-1",
        "lat": 35.153159,
        "lng": 126.892536
    },
    {
        "name": "광주광역시 사회재난과 - 서구 경열로45번길 20",
        "lat": 35.152812,
        "lng": 126.892163
    },
    {
        "name": "광주광역시 사회재난과 - 서구 계수로51번길 6",
        "lat": 35.160782,
        "lng": 126.85622
    },
    {
        "name": "광주광역시 사회재난과 - 서구 계수로73번길 4-1",
        "lat": 35.16069,
        "lng": 126.858652
    },
    {
        "name": "광주광역시 사회재난과 - 서구 상무오월로3번길 32-3",
        "lat": 35.158485,
        "lng": 126.859776
    },
    {
        "name": "광주광역시 사회재난과 - 서구 상무오월로 21",
        "lat": 35.155495,
        "lng": 126.861556
    },
    {
        "name": "광주광역시 사회재난과 - 서구 상무오월로38번길 35-12",
        "lat": 35.155906,
        "lng": 126.866199
    },
    {
        "name": "광주광역시 사회재난과 - 서구 상무대로867번길 12",
        "lat": 35.151505,
        "lng": 126.856695
    },
    {
        "name": "광주광역시 사회재난과 - 서구 하남대로 468 ",
        "lat": 35.175591,
        "lng": 126.844479
    },
    {
        "name": "광주광역시 사회재난과 - 서구 천변좌로 268",
        "lat": 35.152594,
        "lng": 126.905279
    },
    {
        "name": "광주광역시 사회재난과 - 서구 월암길 28 인근 정자 앞",
        "lat": 35.13952,
        "lng": 126.834175
    },
    {
        "name": "광주광역시 사회재난과 - 서구 월암길 28 인근 정자 앞",
        "lat": 35.13952,
        "lng": 126.834175
    },
    {
        "name": "광주광역시 사회재난과 - 서구 대남대로462번길 7",
        "lat": 35.151606,
        "lng": 126.886716
    },
    {
        "name": "광주광역시 사회재난과 - 서구 대남대로462번길 7",
        "lat": 35.151606,
        "lng": 126.886716
    },
    {
        "name": "광주광역시 사회재난과 - 서구 염화로83번길 25-7",
        "lat": 35.142779,
        "lng": 126.871659
    },
    {
        "name": "광주광역시 사회재난과 - 서구 염화로83번길 25-7",
        "lat": 35.142779,
        "lng": 126.871659
    },
    {
        "name": "광주광역시 사회재난과 - 서구 화개중앙로 13",
        "lat": 35.122444,
        "lng": 126.859708
    },
    {
        "name": "광주광역시 사회재난과 - 서구 화개중앙로 13",
        "lat": 35.122444,
        "lng": 126.859708
    },
    {
        "name": "광주광역시 사회재난과 - 서구 쌍학로8번길 11 인근",
        "lat": 35.145194,
        "lng": 126.865951
    },
    {
        "name": "광주광역시 사회재난과 - 서구 쌍학로8번길 11 인근",
        "lat": 35.145194,
        "lng": 126.865951
    },
    {
        "name": "광주광역시 사회재난과 - 서구 금화로59번길 17",
        "lat": 35.134019,
        "lng": 126.854974
    },
    {
        "name": "광주광역시 사회재난과 - 서구 금화로59번길 17",
        "lat": 35.134019,
        "lng": 126.854974
    },
    {
        "name": "광주광역시 사회재난과 - 서구 금화로59번길 17",
        "lat": 35.134019,
        "lng": 126.854974
    },
    {
        "name": "광주광역시 사회재난과 - 서구 백석길 28",
        "lat": 35.142257,
        "lng": 126.85241
    },
    {
        "name": "광주광역시 사회재난과 - 서구 백석길 28",
        "lat": 35.142257,
        "lng": 126.85241
    },
    {
        "name": "광주광역시 사회재난과 - 서구 광천1길 8",
        "lat": 35.164001,
        "lng": 126.882294
    },
    {
        "name": "광주광역시 사회재난과 - 서구 광천1길 8",
        "lat": 35.164001,
        "lng": 126.882294
    },
    {
        "name": "광주광역시 사회재난과 - 서구 화운로193번길 22",
        "lat": 35.156177,
        "lng": 126.874773
    },
    {
        "name": "광주광역시 사회재난과 - 서구 화운로193번길 22",
        "lat": 35.156177,
        "lng": 126.874773
    },
    {
        "name": "광주광역시 사회재난과 - 서구 월드컵4강로197번길 28",
        "lat": 35.1537,
        "lng": 126.866445
    },
    {
        "name": "광주광역시 사회재난과 - 서구 운천로172번길 15",
        "lat": 35.148078,
        "lng": 126.858318
    },
    {
        "name": "광주광역시 사회재난과 - 서구 쌍촌로3번길 10-2",
        "lat": 35.145067,
        "lng": 126.864049
    },
    {
        "name": "광주광역시 사회재난과 - 서구 쌍촌로 56",
        "lat": 35.149763,
        "lng": 126.866504
    },
    {
        "name": "광주광역시 사회재난과 - 서구 쌍촌로 56",
        "lat": 35.150446,
        "lng": 126.865729
    },
    {
        "name": "광주광역시 사회재난과 - 서구 쌍촌로 56",
        "lat": 35.148524,
        "lng": 126.865723
    },
    {
        "name": "광주광역시 사회재난과 - 서구 화정로 265-20",
        "lat": 35.148668,
        "lng": 126.885335
    },
    {
        "name": "광주광역시 사회재난과 - 서구 화운로175번길 5-15",
        "lat": 35.153717,
        "lng": 126.875999
    },
    {
        "name": "광주광역시 사회재난과 - 서구 전평길 40-1",
        "lat": 35.117169,
        "lng": 126.848113
    },
    {
        "name": "광주광역시 사회재난과 - 서구 전평길 40-1",
        "lat": 35.117169,
        "lng": 126.848113
    },
    {
        "name": "광주광역시 사회재난과 - 서구 풍금로151번길 17",
        "lat": 35.131122,
        "lng": 126.858071
    },
    {
        "name": "광주광역시 사회재난과 - 서구 풍금로151번길 17",
        "lat": 35.131122,
        "lng": 126.858071
    },
    {
        "name": "광주광역시 사회재난과 - 서구 화정로 245",
        "lat": 35.147145,
        "lng": 126.883628
    },
    {
        "name": "광주광역시 사회재난과 - 서구 화정로 245",
        "lat": 35.147145,
        "lng": 126.883628
    },
    {
        "name": "광주광역시 사회재난과 - 서구 상무시민로 129",
        "lat": 35.155233,
        "lng": 126.852865
    },
    {
        "name": "광주광역시 사회재난과 - 서구 상무시민로 129",
        "lat": 35.155233,
        "lng": 126.852865
    },
    {
        "name": "광주광역시 사회재난과 - 서구 화운로 19",
        "lat": 35.142863,
        "lng": 126.884414
    },
    {
        "name": "광주광역시 사회재난과 - 서구 화운로 19",
        "lat": 35.142863,
        "lng": 126.884414
    },
    {
        "name": "광주광역시 사회재난과 - 서구 풍암1로 27",
        "lat": 35.124848,
        "lng": 126.878328
    },
    {
        "name": "광주광역시 사회재난과 - 서구 풍암1로 27",
        "lat": 35.124848,
        "lng": 126.878328
    },
    {
        "name": "광주광역시 사회재난과 - 서구 풍암순환로 183",
        "lat": 35.125454,
        "lng": 126.880465
    },
    {
        "name": "광주광역시 사회재난과 - 서구 풍암순환로 183",
        "lat": 35.125454,
        "lng": 126.880465
    },
    {
        "name": "광주광역시 사회재난과 - 서구 경열로 지하 152",
        "lat": 35.154389,
        "lng": 126.901153
    },
    {
        "name": "광주광역시 사회재난과 - 서구 경열로 지하 152",
        "lat": 35.154389,
        "lng": 126.901153
    },
    {
        "name": "광주광역시 사회재난과 - 서구 월드컵4강로 65",
        "lat": 35.142701,
        "lng": 126.874542
    },
    {
        "name": "광주광역시 사회재난과 - 서구 월드컵4강로 65",
        "lat": 35.142701,
        "lng": 126.874542
    },
    {
        "name": "광주광역시 사회재난과 - 서구 무진대로 904",
        "lat": 35.161156,
        "lng": 126.880689
    },
    {
        "name": "광주광역시 사회재난과 - 서구 무진대로 904",
        "lat": 35.161156,
        "lng": 126.880689
    },
    {
        "name": "광주광역시 사회재난과 - 서구 내방로 349",
        "lat": 35.157293,
        "lng": 126.879267
    },
    {
        "name": "광주광역시 사회재난과 - 서구 내방로 349",
        "lat": 35.157293,
        "lng": 126.879267
    },
    {
        "name": "광주광역시 사회재난과 - 서구 내방로 102",
        "lat": 35.154562,
        "lng": 126.851586
    },
    {
        "name": "광주광역시 사회재난과 - 서구 내방로 102",
        "lat": 35.154562,
        "lng": 126.851586
    },
    {
        "name": "광주광역시 사회재난과 - 서구 화정로 119",
        "lat": 35.14518,
        "lng": 126.870626
    },
    {
        "name": "광주광역시 사회재난과 - 서구 화정로 119",
        "lat": 35.14518,
        "lng": 126.870626
    },
    {
        "name": "광주광역시 사회재난과 - 서구 금화로 87",
        "lat": 35.13234,
        "lng": 126.857864
    },
    {
        "name": "광주광역시 사회재난과 - 서구 금화로 87",
        "lat": 35.13234,
        "lng": 126.857864
    },
    {
        "name": "광주광역시 사회재난과 - 서구 상무중앙로 96",
        "lat": 35.155124,
        "lng": 126.84923
    },
    {
        "name": "광주광역시 사회재난과 - 서구 상무중앙로 96",
        "lat": 35.155124,
        "lng": 126.84923
    },
    {
        "name": "광주광역시 사회재난과 - 서구 운천로 247",
        "lat": 35.153968,
        "lng": 126.854108
    },
    {
        "name": "광주광역시 사회재난과 - 서구 운천로 247",
        "lat": 35.153968,
        "lng": 126.854108
    },
    {
        "name": "광주광역시 사회재난과 - 서구 내방로 52",
        "lat": 35.158845,
        "lng": 126.847402
    },
    {
        "name": "광주광역시 사회재난과 - 서구 내방로 52",
        "lat": 35.158845,
        "lng": 126.847402
    },
    {
        "name": "광주광역시 사회재난과 - 서구 상무대로 773",
        "lat": 35.147239,
        "lng": 126.847397
    },
    {
        "name": "광주광역시 사회재난과 - 서구 상무대로 773",
        "lat": 35.147239,
        "lng": 126.847397
    },
    {
        "name": "광주광역시 사회재난과 - 서구 무진대로 950",
        "lat": 35.161126,
        "lng": 126.884879
    },
    {
        "name": "광주광역시 사회재난과 - 서구 무진대로 950",
        "lat": 35.161126,
        "lng": 126.884879
    },
    {
        "name": "광주광역시 사회재난과 - 서구 상무누리로 30",
        "lat": 35.145151,
        "lng": 126.840153
    },
    {
        "name": "광주광역시 사회재난과 - 서구 상무누리로 30",
        "lat": 35.145151,
        "lng": 126.840153
    },
    {
        "name": "광주광역시 사회재난과 - 서구 하남대로680번길 3",
        "lat": 35.17098,
        "lng": 126.866878
    },
    {
        "name": "광주광역시 사회재난과 - 서구 하남대로680번길 3",
        "lat": 35.17098,
        "lng": 126.866878
    },
    {
        "name": "광주광역시 사회재난과 - 서구 염화로 59",
        "lat": 35.140274,
        "lng": 126.873377
    },
    {
        "name": "광주광역시 사회재난과 - 서구 염화로 59",
        "lat": 35.140274,
        "lng": 126.873377
    },
    {
        "name": "광주광역시 사회재난과 - 서구 염화로 118",
        "lat": 35.142943,
        "lng": 126.877544
    },
    {
        "name": "광주광역시 사회재난과 - 서구 염화로 118",
        "lat": 35.142943,
        "lng": 126.877544
    },
    {
        "name": "광주광역시 사회재난과 - 서구 화정로 149",
        "lat": 35.145278,
        "lng": 126.873192
    },
    {
        "name": "광주광역시 사회재난과 - 서구 화정로 149",
        "lat": 35.145278,
        "lng": 126.873192
    },
    {
        "name": "광주광역시 사회재난과 - 서구 상무시민로 75",
        "lat": 35.155227,
        "lng": 126.847423
    },
    {
        "name": "광주광역시 사회재난과 - 서구 상무시민로 75",
        "lat": 35.155227,
        "lng": 126.847423
    },
    {
        "name": "광주광역시 사회재난과 - 서구 시청로50번길 14",
        "lat": 35.152929,
        "lng": 126.853049
    },
    {
        "name": "광주광역시 사회재난과 - 서구 시청로50번길 14",
        "lat": 35.152929,
        "lng": 126.853049
    },
    {
        "name": "광주광역시 사회재난과 - 서구 상무연하로 68",
        "lat": 35.153933,
        "lng": 126.850253
    },
    {
        "name": "광주광역시 사회재난과 - 서구 상무연하로 68",
        "lat": 35.153933,
        "lng": 126.850253
    },
    {
        "name": "광주광역시 사회재난과 - 서구 상무중앙로 102",
        "lat": 35.156944,
        "lng": 126.849293
    },
    {
        "name": "광주광역시 사회재난과 - 서구 상무중앙로 102",
        "lat": 35.156944,
        "lng": 126.849293
    },
    {
        "name": "광주광역시 사회재난과 - 서구 풍암1로 6",
        "lat": 35.12646,
        "lng": 126.877589
    },
    {
        "name": "광주광역시 사회재난과 - 서구 풍암1로 6",
        "lat": 35.12646,
        "lng": 126.877589
    },
    {
        "name": "광주광역시 사회재난과 - 서구 시청로 41",
        "lat": 35.151826,
        "lng": 126.851428
    },
    {
        "name": "광주광역시 사회재난과 - 서구 시청로 41",
        "lat": 35.151826,
        "lng": 126.851428
    },
    {
        "name": "광주광역시 사회재난과 - 서구 무진대로 975",
        "lat": 35.161184,
        "lng": 126.887428
    },
    {
        "name": "광주광역시 사회재난과 - 서구 무진대로 975",
        "lat": 35.161184,
        "lng": 126.887428
    },
    {
        "name": "광주광역시 사회재난과 - 서구 칠성로 39",
        "lat": 35.166577,
        "lng": 126.861863
    },
    {
        "name": "광주광역시 사회재난과 - 서구 칠성로 39",
        "lat": 35.166577,
        "lng": 126.861863
    },
    {
        "name": "광주광역시 사회재난과 - 서구 동천로 25",
        "lat": 35.170685,
        "lng": 126.860305
    },
    {
        "name": "광주광역시 사회재난과 - 서구 동천로 25",
        "lat": 35.170685,
        "lng": 126.860305
    },
    {
        "name": "광주광역시 사회재난과 - 서구 시청로20번길 10",
        "lat": 35.150327,
        "lng": 126.852962
    },
    {
        "name": "광주광역시 사회재난과 - 서구 시청로20번길 10",
        "lat": 35.150327,
        "lng": 126.852962
    },
    {
        "name": "광주광역시 사회재난과 - 서구 마륵복개로 149-1",
        "lat": 35.147058,
        "lng": 126.853213
    },
    {
        "name": "광주광역시 사회재난과 - 서구 마륵복개로 149-1",
        "lat": 35.147058,
        "lng": 126.853213
    },
    {
        "name": "광주광역시 사회재난과 - 서구 금화로59번길 6",
        "lat": 35.132067,
        "lng": 126.855138
    },
    {
        "name": "광주광역시 사회재난과 - 서구 금화로59번길 6",
        "lat": 35.132067,
        "lng": 126.855138
    },
    {
        "name": "광주광역시 사회재난과 - 서구 화운로 178",
        "lat": 35.154551,
        "lng": 126.876784
    },
    {
        "name": "광주광역시 사회재난과 - 서구 화운로 178",
        "lat": 35.154551,
        "lng": 126.876784
    },
    {
        "name": "광주광역시 사회재난과 - 서구 화정로 259",
        "lat": 35.148093,
        "lng": 126.88537
    },
    {
        "name": "광주광역시 사회재난과 - 서구 화정로 259",
        "lat": 35.148093,
        "lng": 126.88537
    },
    {
        "name": "광주광역시 사회재난과 - 서구 화운로 128",
        "lat": 35.1505,
        "lng": 126.878015
    },
    {
        "name": "광주광역시 사회재난과 - 서구 화운로 128",
        "lat": 35.1505,
        "lng": 126.878015
    },
    {
        "name": "광주광역시 사회재난과 - 서구 화정로244번길 33",
        "lat": 35.14465,
        "lng": 126.885463
    },
    {
        "name": "광주광역시 사회재난과 - 서구 화정로244번길 33",
        "lat": 35.14465,
        "lng": 126.885463
    },
    {
        "name": "광주광역시 사회재난과 - 서구 상무자유로 181-7",
        "lat": 35.152949,
        "lng": 126.854106
    },
    {
        "name": "광주광역시 사회재난과 - 서구 상무자유로 181-7",
        "lat": 35.152949,
        "lng": 126.854106
    },
    {
        "name": "광주광역시 사회재난과 - 서구 풍암순환로128번길 89",
        "lat": 35.12912,
        "lng": 126.886776
    },
    {
        "name": "광주광역시 사회재난과 - 서구 풍암순환로128번길 89",
        "lat": 35.12912,
        "lng": 126.886776
    },
    {
        "name": "광주광역시 사회재난과 - 서구 풍암중앙로 83",
        "lat": 35.126177,
        "lng": 126.882674
    },
    {
        "name": "광주광역시 사회재난과 - 서구 풍암중앙로 83",
        "lat": 35.126177,
        "lng": 126.882674
    },
    {
        "name": "광주광역시 사회재난과 - 서구 염화로134번길 28",
        "lat": 35.140387,
        "lng": 126.879586
    },
    {
        "name": "광주광역시 사회재난과 - 서구 염화로134번길 28",
        "lat": 35.140387,
        "lng": 126.879586
    },
    {
        "name": "광주광역시 사회재난과 - 서구 월산로 266",
        "lat": 35.159638,
        "lng": 126.888603
    },
    {
        "name": "광주광역시 사회재난과 - 서구 월산로 266",
        "lat": 35.159638,
        "lng": 126.888603
    },
    {
        "name": "광주광역시 사회재난과 - 서구 시청로 98",
        "lat": 35.157057,
        "lng": 126.852953
    },
    {
        "name": "광주광역시 사회재난과 - 서구 시청로 98",
        "lat": 35.157057,
        "lng": 126.852953
    },
    {
        "name": "광주광역시 사회재난과 - 서구 풍암2로 56",
        "lat": 35.123445,
        "lng": 126.881405
    },
    {
        "name": "광주광역시 사회재난과 - 서구 풍암2로 56",
        "lat": 35.123445,
        "lng": 126.881405
    },
    {
        "name": "광주광역시 사회재난과 - 서구 내방로 153",
        "lat": 35.160013,
        "lng": 126.858199
    },
    {
        "name": "광주광역시 사회재난과 - 서구 내방로 153",
        "lat": 35.160013,
        "lng": 126.858199
    },
    {
        "name": "광주광역시 사회재난과 - 서구 상무버들로 18",
        "lat": 35.164421,
        "lng": 126.861623
    },
    {
        "name": "광주광역시 사회재난과 - 서구 상무버들로 18",
        "lat": 35.164421,
        "lng": 126.861623
    },
    {
        "name": "광주광역시 사회재난과 - 서구 화운로304번길 15-25",
        "lat": 35.16584,
        "lng": 126.880615
    },
    {
        "name": "광주광역시 사회재난과 - 서구 화운로304번길 15-25",
        "lat": 35.16584,
        "lng": 126.880615
    },
    {
        "name": "광주광역시 사회재난과 - 서구 염화로31번길 1",
        "lat": 35.137337,
        "lng": 126.872695
    },
    {
        "name": "광주광역시 사회재난과 - 서구 염화로31번길 1",
        "lat": 35.137337,
        "lng": 126.872695
    },
    {
        "name": "광주광역시 사회재난과 - 서구 화개중앙로 60",
        "lat": 35.125425,
        "lng": 126.855008
    },
    {
        "name": "광주광역시 사회재난과 - 서구 화개중앙로 60",
        "lat": 35.125425,
        "lng": 126.855008
    },
    {
        "name": "광주광역시 사회재난과 - 서구 학생독립로 16",
        "lat": 35.144011,
        "lng": 126.86681
    },
    {
        "name": "광주광역시 사회재난과 - 서구 학생독립로 16",
        "lat": 35.144011,
        "lng": 126.86681
    },
    {
        "name": "광주광역시 사회재난과 - 서구 상무버들로40번길 1",
        "lat": 35.164431,
        "lng": 126.859034
    },
    {
        "name": "광주광역시 사회재난과 - 서구 상무버들로40번길 1",
        "lat": 35.164431,
        "lng": 126.859034
    },
    {
        "name": "광주광역시 사회재난과 - 서구 상무연하로 49",
        "lat": 35.152898,
        "lng": 126.850166
    },
    {
        "name": "광주광역시 사회재난과 - 서구 상무연하로 49",
        "lat": 35.152898,
        "lng": 126.850166
    },
    {
        "name": "광주광역시 사회재난과 - 서구 치평로 106",
        "lat": 35.157004,
        "lng": 126.84741
    },
    {
        "name": "광주광역시 사회재난과 - 서구 치평로 106",
        "lat": 35.157004,
        "lng": 126.84741
    },
    {
        "name": "광주광역시 사회재난과 - 서구 상무연하로 11",
        "lat": 35.150334,
        "lng": 126.850192
    },
    {
        "name": "광주광역시 사회재난과 - 서구 상무연하로 11",
        "lat": 35.150334,
        "lng": 126.850192
    },
    {
        "name": "광주광역시 사회재난과 - 서구 쌍촌로 13-1",
        "lat": 35.146283,
        "lng": 126.865042
    },
    {
        "name": "광주광역시 사회재난과 - 서구 쌍촌로 13-1",
        "lat": 35.146283,
        "lng": 126.865042
    },
    {
        "name": "광주광역시 사회재난과 - 서구 내방로 434",
        "lat": 35.160107,
        "lng": 126.886537
    },
    {
        "name": "광주광역시 사회재난과 - 서구 내방로 434",
        "lat": 35.160107,
        "lng": 126.886537
    },
    {
        "name": "광주광역시 사회재난과 - 서구 양동로 18-1",
        "lat": 35.154891,
        "lng": 126.899198
    },
    {
        "name": "광주광역시 사회재난과 - 서구 상무오월로38번길 15",
        "lat": 35.155501,
        "lng": 126.864216
    },
    {
        "name": "광주광역시 사회재난과 - 서구 상무오월로38번길 15",
        "lat": 35.155501,
        "lng": 126.864216
    },
    {
        "name": "광주광역시 사회재난과 - 서구 내방로 102",
        "lat": 35.155188,
        "lng": 126.852018
    },
    {
        "name": "광주광역시 사회재난과 - 서구 내방로 102",
        "lat": 35.156982,
        "lng": 126.851852
    },
    {
        "name": "광주광역시 사회재난과 - 서구 내방로 102",
        "lat": 35.156982,
        "lng": 126.851852
    },
    {
        "name": "광주광역시 사회재난과 - 서구 내방로 102",
        "lat": 35.157118,
        "lng": 126.851262
    },
    {
        "name": "광주광역시 사회재난과 - 서구 내방로 102",
        "lat": 35.157118,
        "lng": 126.851262
    },
    {
        "name": "광주광역시 사회재난과 - 서구 내방로 102",
        "lat": 35.155113,
        "lng": 126.851216
    },
    {
        "name": "광주광역시 사회재난과 - 서구 천변좌로 238",
        "lat": 35.154678,
        "lng": 126.902027
    },
    {
        "name": "광주광역시 사회재난과 - 서구 천변좌로 238",
        "lat": 35.154678,
        "lng": 126.902027
    },
    {
        "name": "광주광역시 사회재난과 - 서구 천변좌로 238",
        "lat": 35.153431,
        "lng": 126.903797
    },
    {
        "name": "광주광역시 사회재난과 - 서구 천변좌로 238",
        "lat": 35.153431,
        "lng": 126.903797
    },
    {
        "name": "광주광역시 사회재난과 - 서구 시청로 53",
        "lat": 35.152891,
        "lng": 126.851674
    },
    {
        "name": "광주광역시 사회재난과 - 서구 시청로 53",
        "lat": 35.152891,
        "lng": 126.851674
    },
    {
        "name": "광주광역시 사회재난과 - 서구 풍암순환로128번길 73",
        "lat": 35.128467,
        "lng": 126.88559
    },
    {
        "name": "광주광역시 사회재난과 - 서구 풍암순환로128번길 73",
        "lat": 35.128467,
        "lng": 126.88559
    },
    {
        "name": "광주광역시 사회재난과 - 서구 풍암순환로128번길 63",
        "lat": 35.127528,
        "lng": 126.884924
    },
    {
        "name": "광주광역시 사회재난과 - 서구 풍암순환로128번길 63",
        "lat": 35.127528,
        "lng": 126.884924
    },
    {
        "name": "광주광역시 사회재난과 - 서구 상무민주로 61",
        "lat": 35.158383,
        "lng": 126.856232
    },
    {
        "name": "광주광역시 사회재난과 - 서구 상무민주로 61",
        "lat": 35.156036,
        "lng": 126.855416
    },
    {
        "name": "광주광역시 사회재난과 - 서구 상무민주로 61",
        "lat": 35.156803,
        "lng": 126.855931
    },